STAID,STANAME,CLASS,AGGECOREGI,DRAIN_SQKM,HUC02,LAT_GAGE,LNG_GAGE,STATE,HCDN_2009,ACTIVE09,FLYRS1900,FLYRS1950,FLYRS1990
01011000,"Allagash River near Allagash, Maine",Non-ref,NorthEast,3186.844000,01,47.069611,-69.079544,ME,,yes,78.000000,60.000000,20.000000
01013500,"Fish River near Fort Kent, Maine",Ref,NorthEast,2252.696000,01,47.237394,-68.582642,ME,yes,yes,85.000000,60.000000,20.000000
01015800,"Aroostook River near Masardis, Maine",Non-ref,NorthEast,2313.755000,01,46.523003,-68.371764,ME,,yes,51.000000,51.000000,19.000000
01016500,"MACHIAS RIVER NEAR ASHLAND, ME",Non-ref,NorthEast,847.772100,01,46.628311,-68.434792,ME,,,32.000000,32.000000,0.000000
01017000,"Aroostook River at Washburn, Maine",Non-ref,NorthEast,4278.907000,01,46.777294,-68.157194,ME,,yes,79.000000,60.000000,20.000000
01017060,"Hardwood Brook below Glidden Brk nr Caribou, Maine",Non-ref,NorthEast,14.864400,01,46.783611,-67.989167,ME,,yes,0.000000,0.000000,0.000000
01017290,"Little Madawaska River at Caribou, Maine",Non-ref,NorthEast,594.576000,01,46.888610,-67.945000,ME,,yes,1.000000,1.000000,1.000000
01017550,"Williams Brook at Phair, Maine",Ref,NorthEast,10.032300,01,46.628056,-67.953056,ME,,yes,9.000000,9.000000,9.000000
01017960,"Meduxnekeag R above S Br Medux. R nr Houlton, ME",Non-ref,NorthEast,226.253700,01,46.105000,-67.881389,ME,,yes,6.000000,6.000000,6.000000
01018000,"Meduxnekeag River near Houlton, Maine",Non-ref,NorthEast,450.473400,01,46.104917,-67.866631,ME,,yes,47.000000,39.000000,6.000000
01018009,"Pearce Brook at Route 1 at Houlton, Maine",Non-ref,NorthEast,19.519200,01,46.115280,-67.840280,ME,,yes,1.000000,1.000000,1.000000
01019000,"Grand Lake Stream at Grand Lake Stream, Maine",Non-ref,NorthEast,620.623800,01,45.172522,-67.768800,ME,,yes,80.000000,60.000000,20.000000
01021200,"DENNYS RIVER AT DENNYSVILLE, ME",Non-ref,NorthEast,242.840700,01,44.901489,-67.247619,ME,,yes,51.000000,51.000000,17.000000
01021470,"Libby Brook near Northfield, Maine",Ref,NorthEast,16.100100,01,44.800833,-67.725000,ME,,yes,9.000000,9.000000,9.000000
01021480,"Old Stream near Wesley, Maine",Ref,NorthEast,76.738490,01,44.936944,-67.736111,ME,,yes,11.000000,11.000000,11.000000
01021500,"Machias River at Whitneyville, Maine",Non-ref,NorthEast,1184.140000,01,44.722994,-67.520478,ME,,yes,70.000000,35.000000,7.000000
01022260,"Pleasant River near Epping, Maine",Ref,NorthEast,161.993700,01,44.697778,-67.787222,ME,,yes,18.000000,18.000000,9.000000
01022330,"Narraguagus River at Deblois, Maine",Ref,NorthEast,264.812400,01,44.740833,-68.013333,ME,,yes,5.000000,5.000000,5.000000
01022500,"Narraguagus River at Cherryfield, Maine",Ref,NorthEast,573.600600,01,44.607972,-67.935242,ME,yes,yes,61.000000,60.000000,20.000000
01023000,"WEST BRANCH UNION RIVER AT AMHERST, ME",Ref,NorthEast,385.097400,01,44.840239,-68.372017,ME,,,60.000000,30.000000,0.000000
01027200,"North Branch Penobscot River nr Pittston Farm, ME",Ref,NorthEast,582.048900,01,45.935278,-69.993611,ME,,yes,8.000000,8.000000,8.000000
01029200,"Seboeis River near Shin Pond, Maine",Ref,NorthEast,444.949200,01,46.143056,-68.633611,ME,,yes,11.000000,11.000000,11.000000
01029500,"East Branch Penobscot River at Grindstone, Maine",Non-ref,NorthEast,2816.295000,01,45.730267,-68.589486,ME,,yes,89.000000,44.000000,11.000000
01030000,"PENOBSCOT RIVER NEAR MATTAWAMKEAG, ME",Non-ref,NorthEast,8732.993000,01,45.566333,-68.403664,ME,,,51.000000,42.000000,2.000000
01030500,"Mattawamkeag River near Mattawamkeag, Maine",Ref,NorthEast,3676.172000,01,45.500975,-68.305956,ME,yes,yes,75.000000,60.000000,20.000000
01031300,"Piscataquis River at Blanchard, Maine",Ref,NorthEast,304.376400,01,45.267222,-69.583889,ME,,yes,13.000000,13.000000,13.000000
01031450,"Kingsbury Stream at Abbot Village, Maine",Non-ref,NorthEast,239.092200,01,45.184444,-69.452222,ME,,yes,12.000000,12.000000,12.000000
01031500,"Piscataquis River near Dover-Foxcroft, Maine",Ref,NorthEast,769.048200,01,45.175008,-69.314697,ME,yes,yes,107.000000,60.000000,20.000000
01031510,"Black Stream near Dover-Foxcroft, Maine",Ref,NorthEast,70.104600,01,45.150278,-69.236389,ME,,yes,1.000000,1.000000,1.000000
01033000,"SEBEC RIVER AT SEBEC, ME",Non-ref,NorthEast,844.353000,01,45.270256,-69.111733,ME,,,66.000000,42.000000,4.000000
01033500,"PLEASANT RIVER NEAR MILO, ME",Ref,NorthEast,833.964300,01,45.282578,-69.003439,ME,,,59.000000,30.000000,0.000000
01034000,"Piscataquis River at Medford, Maine",Non-ref,NorthEast,3011.229000,01,45.260611,-68.868614,ME,,yes,78.000000,53.000000,20.000000
01034500,"Penobscot River at West Enfield, Maine",Non-ref,NorthEast,17347.380000,01,45.236175,-68.651383,ME,,yes,107.000000,60.000000,20.000000
01035000,"PASSADUMKEAG RIVER AT LOWELL, ME",Non-ref,NorthEast,779.408100,01,45.183936,-68.474425,ME,,,64.000000,30.000000,0.000000
01036500,"KENDUSKEAG STREAM NEAR KENDUSKEAG, ME",Non-ref,NorthEast,391.499100,01,44.897144,-68.883683,ME,,,38.000000,30.000000,0.000000
01037380,"Ducktrap River near Lincolnville, Maine",Ref,NorthEast,39.023100,01,44.329167,-69.060833,ME,,yes,11.000000,11.000000,11.000000
01038000,"Sheepscot River at North Whitefield, Maine",Non-ref,NorthEast,375.084900,01,44.222778,-69.593758,ME,,yes,71.000000,60.000000,20.000000
01041000,"KENNEBEC RIVER AT MOOSEHEAD, ME",Non-ref,NorthEast,3293.256000,01,45.584850,-69.716964,ME,,,63.000000,33.000000,0.000000
01042500,"Kennebec River at The Forks, Maine",Non-ref,NorthEast,4124.360000,01,45.339708,-69.962058,ME,,yes,106.000000,60.000000,20.000000
01043500,"DEAD RIVER NEAR DEAD RIVER, ME",Non-ref,NorthEast,1343.690000,01,45.230458,-70.199836,ME,,,43.000000,33.000000,0.000000
01044550,"Spencer Stream near Grand Falls, Maine",Ref,NorthEast,499.762800,01,45.313611,-70.241667,ME,,yes,10.000000,10.000000,10.000000
01045000,"DEAD RIVER AT THE FORKS, ME",Non-ref,NorthEast,2254.018000,01,45.349056,-69.990189,ME,,,74.000000,30.000000,0.000000
01046000,"AUSTIN STREAM AT BINGHAM, ME",Ref,NorthEast,243.158400,01,45.065186,-69.880767,ME,,yes,39.000000,21.000000,1.000000
01046500,"Kennebec River at Bingham, Maine",Non-ref,NorthEast,7056.902000,01,45.052050,-69.885506,ME,,yes,81.000000,60.000000,20.000000
01047000,"Carrabassett River near North Anson, Maine",Ref,NorthEast,909.097200,01,44.869200,-69.955103,ME,yes,yes,88.000000,60.000000,20.000000
01047150,"Kennebec River near Madison, Maine",Non-ref,NorthEast,8433.685000,01,44.778889,-69.886944,ME,,yes,0.000000,0.000000,0.000000
01047200,"Sandy River near Madrid, Maine",Ref,NorthEast,65.646000,01,44.857778,-70.485278,ME,,yes,1.000000,1.000000,1.000000
01048000,"Sandy River near Mercer, Maine",Non-ref,NorthEast,1339.138000,01,44.708169,-69.937592,ME,,yes,72.000000,52.000000,20.000000
01048220,"East Branch Wesserunsett Stream near Athens, Maine",Ref,NorthEast,49.389300,01,44.947500,-69.656944,ME,,yes,1.000000,1.000000,1.000000
01049000,"Sebasticook River near Pittsfield, Maine",Non-ref,NorthEast,1488.607000,01,44.716778,-69.413819,ME,,yes,80.000000,60.000000,20.000000
01049265,"KENNEBEC RIVER AT NORTH SIDNEY, MAINE",Non-ref,NorthEast,14014.810000,01,44.472339,-69.683989,ME,,yes,24.000000,24.000000,13.000000
01049500,"Cobbosseecontee Stream at Gardiner, Maine",Non-ref,NorthEast,561.314700,01,44.229097,-69.778047,ME,,yes,98.000000,48.000000,20.000000
01052500,"Diamond River near Wentworth Location, NH",Ref,NorthEast,383.823400,01,44.877394,-71.057494,NH,yes,yes,68.000000,60.000000,20.000000
01053500,"Androscoggin River at Errol, NH",Non-ref,NorthEast,2701.495000,01,44.782558,-71.128686,NH,,yes,103.000000,60.000000,20.000000
01053600,Androscoggin River below Bog Brook at Cambridge NH,Non-ref,NorthEast,3047.351000,01,44.666111,-71.181389,NH,,yes,1.000000,1.000000,1.000000
01054000,"Androscoggin River near Gorham, NH",Non-ref,NorthEast,3527.626000,01,44.435792,-71.190178,NH,,yes,89.000000,60.000000,20.000000
01054200,"Wild River at Gilead, Maine",Ref,NorthEast,180.981000,01,44.390444,-70.979644,ME,yes,yes,45.000000,45.000000,20.000000
01054300,"Ellis River at South Andover, Maine",Ref,NorthEast,337.729500,01,44.593242,-70.733017,ME,,yes,27.000000,27.000000,8.000000
01054500,"Androscoggin River at Rumford, Maine",Non-ref,NorthEast,5349.329000,01,44.551814,-70.544067,ME,,yes,108.000000,60.000000,20.000000
01055000,"Swift River near Roxbury, Maine",Ref,NorthEast,250.641000,01,44.642747,-70.588783,ME,yes,yes,80.000000,60.000000,20.000000
01055500,"Nezinscot River at Turner Center, Maine",Non-ref,NorthEast,439.505100,01,44.269506,-70.229606,ME,,yes,63.000000,55.000000,15.000000
01057000,"Little Androscoggin River near South Paris, Maine",Ref,NorthEast,190.918800,01,44.303992,-70.539681,ME,yes,yes,88.000000,60.000000,20.000000
01058500,"LITTLE ANDROSCOGGIN RIVER NEAR AUBURN, ME",Non-ref,NorthEast,851.433300,01,44.063872,-70.274069,ME,,,42.000000,33.000000,0.000000
01059000,"Androscoggin River near Auburn, Maine",Non-ref,NorthEast,8444.240000,01,44.072297,-70.208014,ME,,yes,80.000000,60.000000,20.000000
01059800,"Collyer Brook near Gray, Maine",Non-ref,NorthEast,35.314200,01,43.917894,-70.316597,ME,,,20.000000,20.000000,2.000000
01060000,"Royal River at Yarmouth, Maine",Non-ref,NorthEast,364.828500,01,43.799150,-70.178269,ME,,,55.000000,55.000000,15.000000
01064000,"PRESUMPSCOT RIVER AT OUTLET OF SEBAGO LAKE, ME",Non-ref,NorthEast,1145.668000,01,43.817528,-70.449936,ME,,,99.000000,51.000000,11.000000
01064118,"Presumpscot River at Westbrook, Maine",Non-ref,NorthEast,1554.034000,01,43.686997,-70.347136,ME,,,20.000000,20.000000,6.000000
01064300,"ELLIS RIVER NEAR JACKSON, NH",Ref,NorthEast,27.433800,01,44.218956,-71.249240,NH,,,40.000000,40.000000,15.000000
01064400,"LUCY BROOK NEAR NORTH CONWAY, NH",Ref,NorthEast,12.170700,01,44.070347,-71.172849,NH,,,27.000000,27.000000,2.000000
01064500,"Saco River near Conway, NH",Non-ref,NorthEast,993.696400,01,43.990842,-71.090478,NH,,yes,86.000000,60.000000,20.000000
01064801,"BEARCAMP RIVER AT SOUTH TAMWORTH, NH",Ref,NorthEast,173.400300,01,43.830074,-71.287849,NH,,yes,16.000000,16.000000,16.000000
01065000,"OSSIPEE RIVER AT EFFINGHAM FALLS, NH",Non-ref,NorthEast,855.258300,01,43.795075,-71.059234,NH,,,48.000000,41.000000,1.000000
01065500,"OSSIPEE RIVER AT CORNISH, ME",Non-ref,NorthEast,1172.306000,01,43.807708,-70.797578,ME,,,80.000000,47.000000,7.000000
01066000,"Saco River at Cornish, Maine",Non-ref,NorthEast,3354.558000,01,43.808039,-70.781539,ME,,yes,93.000000,60.000000,20.000000
01066500,"LITTLE OSSIPEE RIVER NEAR SOUTH LIMINGTON, ME",Non-ref,NorthEast,423.932400,01,43.689436,-70.670556,ME,,,42.000000,33.000000,0.000000
01067950,"Kennebunk River near Kennebunk, Maine",Ref,NorthEast,71.504100,01,43.432220,-70.553330,ME,,yes,1.000000,1.000000,1.000000
01068910,"Mousam River at Route 4 near Sanford, Maine",Non-ref,NorthEast,117.363600,01,43.418330,-70.738060,ME,,yes,1.000000,1.000000,1.000000
01069500,"MOUSAM RIVER NEAR WEST KENNEBUNK, ME",Non-ref,NorthEast,264.513600,01,43.418342,-70.658317,ME,,yes,45.000000,35.000000,0.000000
01069700,"Branch Brook near Kennebunk, Maine",Non-ref,NorthEast,27.907200,01,43.379170,-70.583330,ME,,yes,0.000000,0.000000,0.000000
01072500,"SALMON FALLS RIVER NEAR SOUTH LEBANON, ME",Non-ref,NorthEast,359.815500,01,43.328108,-70.927139,ME,,,40.000000,20.000000,0.000000
01072800,"COCHECO RIVER NEAR ROCHESTER, NH.",Non-ref,NorthEast,243.954900,01,43.268415,-70.973674,NH,,yes,14.000000,14.000000,14.000000
01072870,"ISINGLASS R AT ROCHESTER NECK RD, NR DOVER, NH",Non-ref,NorthEast,191.975400,01,43.234800,-70.956450,NH,,yes,4.000000,4.000000,4.000000
01073000,"OYSTER RIVER NEAR DURHAM, NH",Ref,NorthEast,31.298400,01,43.148696,-70.965060,NH,yes,yes,74.000000,60.000000,20.000000
01073319,"LAMPREY RIVER AT LANGFORD ROAD, AT RAYMOND, NH",Non-ref,NorthEast,144.395100,01,43.042307,-71.200618,NH,,yes,1.000000,1.000000,1.000000
01073500,"LAMPREY RIVER NEAR NEWMARKET, NH",Non-ref,NorthEast,471.137400,01,43.102586,-70.952559,NH,,yes,75.000000,60.000000,20.000000
010735562,"EXETER RIVER AT ODELL ROAD, NEAR SANDOWN, NH",Non-ref,NorthEast,42.719400,01,42.948980,-71.164780,NH,,yes,1.000000,1.000000,1.000000
01073587,"EXETER RIVER AT HAIGH ROAD, NEAR BRENTWOOD, NH",Non-ref,NorthEast,163.053000,01,42.984532,-71.038392,NH,,yes,13.000000,13.000000,13.000000
01073600,"DUDLEY BROOK NEAR EXETER, NH",Non-ref,NorthEast,16.384500,01,42.993143,-71.021725,NH,,,23.000000,23.000000,0.000000
01073785,"WINNICUT RIVER AT GREENLAND, NR PORTSMOUTH, NH",Non-ref,NorthEast,36.949500,01,43.036755,-70.848110,NH,,yes,7.000000,7.000000,7.000000
01074520,"EAST BRANCH PEMIGEWASSET RIVER AT LINCOLN, NH",Ref,NorthEast,297.188100,01,44.047567,-71.659803,NH,,yes,16.000000,16.000000,16.000000
01075000,"PEMIGEWASSET RIVER AT WOODSTOCK, NH",Non-ref,NorthEast,504.288000,01,43.976179,-71.679524,NH,,yes,46.000000,36.000000,8.000000
01075800,"STEVENS BROOK NEAR WENTWORTH, NH",Ref,NorthEast,7.674300,01,43.836181,-71.885361,NH,,,35.000000,35.000000,9.000000
01076000,"BAKER RIVER NEAR RUMNEY, NH",Non-ref,NorthEast,369.815400,01,43.795626,-71.845359,NH,,yes,57.000000,36.000000,8.000000
01076500,"PEMIGEWASSET RIVER AT PLYMOUTH, NH",Non-ref,NorthEast,1608.937000,01,43.759239,-71.685634,NH,,yes,106.000000,60.000000,20.000000
01077000,"SQUAM RIVER AT ASHLAND, NH",Non-ref,NorthEast,150.294600,01,43.705351,-71.629799,NH,,,56.000000,46.000000,6.000000
01077400,"COCKERMOUTH RIVER BELOW HARDY BROOK, AT GROTON, NH",Ref,NorthEast,56.195100,01,43.703890,-71.833330,NH,,yes,1.000000,1.000000,1.000000
01078000,"SMITH RIVER NEAR BRISTOL, NH",Ref,NorthEast,222.456600,01,43.566463,-71.747857,NH,yes,yes,91.000000,60.000000,20.000000
01081000,"WINNIPESAUKEE RIVER AT TILTON, NH",Non-ref,NorthEast,1216.967000,01,43.441744,-71.587575,NH,,yes,72.000000,60.000000,20.000000
01081500,"MERRIMACK RIVER AT FRANKLIN JUNCTION, NH",Non-ref,NorthEast,3908.064000,01,43.422854,-71.652854,NH,,yes,80.000000,37.000000,8.000000
01082000,"CONTOOCOOK RIVER AT PETERBOROUGH, NH",Non-ref,NorthEast,175.023000,01,42.862584,-71.959246,NH,,yes,40.000000,36.000000,8.000000
01083000,NUBANUSIT BK BLW MACDOWELL DAM NR PETERBOROUGH NH,Non-ref,NorthEast,116.850600,01,42.892861,-71.986747,NH,,,54.000000,40.000000,0.000000
01084000,"NORTH BRANCH RIVER NEAR ANTRIM, NH",Non-ref,NorthEast,140.081400,01,43.081746,-71.978415,NH,,,46.000000,21.000000,0.000000
01084500,"BEARD BROOK NEAR HILLSBORO, NH",Ref,NorthEast,143.807400,01,43.114246,-71.926192,NH,,,25.000000,21.000000,0.000000
01085000,"CONTOOCOOK RIVER NEAR HENNIKER, NH",Non-ref,NorthEast,950.069700,01,43.152024,-71.857301,NH,,,38.000000,28.000000,0.000000
01085500,"CONTOOCOOK R BL HOPKINTON DAM AT W HOPKINTON, NH",Non-ref,NorthEast,1099.139000,01,43.192857,-71.747299,NH,,yes,34.000000,34.000000,8.000000
01085800,"WEST BRANCH WARNER RIVER NEAR BRADFORD, NH",Ref,NorthEast,14.768100,01,43.259243,-72.025917,NH,,,42.000000,42.000000,15.000000
01086000,"WARNER RIVER AT DAVISVILLE, NH",Ref,NorthEast,381.576600,01,43.251189,-71.732300,NH,,yes,47.000000,37.000000,8.000000
01087000,"BLACKWATER RIVER NEAR WEBSTER, NH",Non-ref,NorthEast,331.850700,01,43.297578,-71.693688,NH,,,64.000000,40.000000,0.000000
01088000,"CONTOOCOOK RIVER AT PENACOOK, NH",Non-ref,NorthEast,1975.255000,01,43.286190,-71.598407,NH,,,48.000000,28.000000,0.000000
01089000,"SOUCOOK RIVER NEAR CONCORD, NH",Non-ref,NorthEast,201.075300,01,43.238692,-71.462015,NH,,,36.000000,36.000000,0.000000
01089100,"SOUCOOK RIVER, AT PEMBROKE ROAD, NEAR CONCORD, NH",Non-ref,NorthEast,214.125300,01,43.213692,-71.480348,NH,,yes,21.000000,21.000000,20.000000
01089500,"SUNCOOK RIVER AT NORTH CHICHESTER, NH",Non-ref,NorthEast,400.798800,01,43.256748,-71.369512,NH,,yes,50.000000,22.000000,1.000000
01090800,"PISCATAQUOG RIVER BL EVERETT DAM, NR E WEARE, NH",Non-ref,NorthEast,163.142100,01,43.091471,-71.659518,NH,,,26.000000,26.000000,0.000000
01091000,"SOUTH BRANCH PISCATAQUOG RIVER NEAR GOFFSTOWN, NH",Ref,NorthEast,266.759100,01,43.014805,-71.641461,NH,,yes,39.000000,30.000000,1.000000
01091500,"PISCATAQUOG RIVER NEAR GOFFSTOWN, NH",Non-ref,NorthEast,519.112800,01,43.016750,-71.550625,NH,,,39.000000,29.000000,0.000000
01092000,"MERRIMACK R NR GOFFS FALLS, BELOW MANCHESTER, NH",Non-ref,NorthEast,7987.650000,01,42.948141,-71.463400,NH,,yes,72.000000,60.000000,20.000000
01093000,"SUCKER BROOK AT AUBURN, NH",Non-ref,NorthEast,77.745600,01,43.005918,-71.348676,NH,,,32.000000,21.000000,0.000000
01093800,"STONY BROOK TRIBUTARY NEAR TEMPLE, NH",Ref,NorthEast,9.389700,01,42.860085,-71.832854,NH,,,41.000000,41.000000,15.000000
01093852,"SOUHEGAN RIVER (SITE WLR-1) NEAR MILFORD, NH",Non-ref,NorthEast,263.703600,01,42.842590,-71.706740,NH,,yes,2.000000,2.000000,2.000000
01094000,"SOUHEGAN RIVER AT MERRIMACK, NH",Non-ref,NorthEast,440.501400,01,42.857586,-71.506179,NH,,yes,75.000000,35.000000,8.000000
01094400,"NORTH NASHUA RIVER AT FITCHBURG, MA",Non-ref,NorthEast,166.160700,01,42.576201,-71.788129,MA,,yes,37.000000,37.000000,20.000000
01094500,"NORTH NASHUA RIVER NEAR LEOMINSTER, MA",Non-ref,NorthEast,279.657000,01,42.501758,-71.722571,MA,,yes,74.000000,60.000000,20.000000
01095220,"STILLWATER RIVER NEAR STERLING, MA",Non-ref,NorthEast,78.689360,01,42.410925,-71.791183,MA,,yes,15.000000,15.000000,15.000000
01095375,"QUINAPOXET RIVER AT CANADA MILLS NEAR HOLDEN, MA",Non-ref,NorthEast,115.191900,01,42.372870,-71.828128,MA,,yes,12.000000,12.000000,12.000000
01095505,"NASHUA RIVER 0.4 MI UPSTREAM RT 110 AT CLINTON, MA",Non-ref,NorthEast,322.715700,01,42.429167,-71.680278,MA,,yes,2.000000,2.000000,2.000000
01096000,"SQUANNACOOK RIVER NEAR WEST GROTON, MA",Non-ref,NorthEast,173.135700,01,42.634256,-71.657848,MA,,yes,60.000000,60.000000,20.000000
01096500,"NASHUA RIVER AT EAST PEPPERELL, MA",Non-ref,NorthEast,1125.681000,01,42.667589,-71.575068,MA,,yes,74.000000,60.000000,20.000000
01096503,"NISSITISSIT RIVER AT PEPPERELL, MA",Ref,NorthEast,155.754900,01,42.672034,-71.577013,MA,,yes,3.000000,3.000000,3.000000
010965852,"BEAVER BROOK AT NORTH PELHAM, NH",Non-ref,NorthEast,123.080400,01,42.782866,-71.353674,NH,,yes,23.000000,23.000000,20.000000
010965995,"ASSABET RIVER, MILL ROAD NEAR WESTBORO, MA",Non-ref,NorthEast,17.771400,01,42.269440,-71.633330,MA,,yes,3.000000,3.000000,3.000000
01096835,"ASSABET RIVER AT PORT ST AT HUDSON, MA",Non-ref,NorthEast,154.154700,01,42.385280,-71.577780,MA,,yes,1.000000,1.000000,1.000000
01096840,"ASSABET RIVER 200 FT BELOW RT 85 AT HUDSON, MA",Non-ref,NorthEast,163.615500,01,42.390000,-71.569720,MA,,yes,1.000000,1.000000,1.000000
01096885,"ASSABET RIVER AT SUDBURY RD NEAR STOW, MA",Non-ref,NorthEast,224.528400,01,42.411670,-71.508060,MA,,yes,1.000000,1.000000,1.000000
01097000,"ASSABET RIVER AT MAYNARD, MA",Non-ref,NorthEast,299.309400,01,42.432038,-71.449785,MA,,yes,68.000000,60.000000,20.000000
01097300,"NASHOBA BROOK NEAR ACTON, MA",Non-ref,NorthEast,30.871800,01,42.512593,-71.404228,MA,,yes,46.000000,46.000000,20.000000
01097380,"NASHOBA BROOK, COMMONWEALTH AVE AT W. CONCORD, MA",Non-ref,NorthEast,120.411900,01,42.458890,-71.397220,MA,,yes,2.000000,2.000000,2.000000
01097480,"SUDBURY RIVER AT ASHLAND, MA",Non-ref,NorthEast,90.828900,01,42.260100,-71.456450,MA,,yes,4.000000,4.000000,4.000000
01098530,"SUDBURY RIVER AT SAXONVILLE, MA",Non-ref,NorthEast,274.232700,01,42.325373,-71.397561,MA,,yes,29.000000,29.000000,20.000000
01099500,"CONCORD R BELOW R MEADOW BROOK, AT LOWELL, MA",Non-ref,NorthEast,1035.510000,01,42.636758,-71.302005,MA,,yes,72.000000,60.000000,20.000000
01100000,"MERRIMACK RIVER BL CONCORD RIVER AT LOWELL, MA",Non-ref,NorthEast,11983.350000,01,42.645925,-71.298394,MA,,yes,86.000000,60.000000,20.000000
01100505,"SPICKET RIVER AT NORTH SALEM, NH",Non-ref,NorthEast,42.864300,01,42.849255,-71.215061,NH,,yes,8.000000,8.000000,8.000000
01100561,"SPICKET RIVER NEAR METHUEN, MA",Non-ref,NorthEast,158.297400,01,42.743146,-71.208393,MA,,yes,4.000000,4.000000,4.000000
01100600,"SHAWSHEEN RIVER NEAR WILMINGTON, MA",Non-ref,NorthEast,96.421500,01,42.568149,-71.214779,MA,,yes,45.000000,45.000000,20.000000
01100627,"SHAWSHEEN RIVER AT BALMORAL STREET AT ANDOVER, MA",Non-ref,NorthEast,173.111400,01,42.671481,-71.149224,MA,,yes,3.000000,3.000000,3.000000
01101000,"PARKER RIVER AT BYFIELD, MA",Non-ref,NorthEast,55.477800,01,42.752869,-70.945610,MA,,yes,63.000000,60.000000,20.000000
01101344,"IPSWICH RIVER AT MILL STREET NR NORTH READING, MA",Non-ref,NorthEast,58.067100,01,42.561110,-71.111110,MA,,yes,2.000000,2.000000,2.000000
01101500,"IPSWICH RIVER AT SOUTH MIDDLETON, MA",Non-ref,NorthEast,115.282600,01,42.569539,-71.026997,MA,,yes,70.000000,59.000000,19.000000
01102000,"IPSWICH RIVER NEAR IPSWICH, MA",Non-ref,NorthEast,316.426500,01,42.659816,-70.893662,MA,,yes,79.000000,60.000000,20.000000
01102345,"SAUGUS RIVER AT SAUGUS IRONWORKS AT SAUGUS, MA",Non-ref,NorthEast,60.381600,01,42.469540,-71.006995,MA,,yes,15.000000,15.000000,15.000000
01102500,"ABERJONA RIVER AT WINCHESTER, MA",Non-ref,NorthEast,59.746710,01,42.447318,-71.138943,MA,,yes,70.000000,60.000000,20.000000
01103025,"ALEWIFE BROOK NEAR ARLINGTON, MA",Non-ref,NorthEast,21.523500,01,42.407041,-71.133942,MA,,yes,1.000000,1.000000,1.000000
01103220,"MISCOE BROOK NEAR FRANKLIN, MA",Non-ref,NorthEast,3.033000,01,42.040930,-71.426730,MA,,yes,9.000000,9.000000,9.000000
01103280,"CHARLES RIVER AT MEDWAY, MA",Non-ref,NorthEast,169.119000,01,42.139820,-71.389503,MA,,yes,11.000000,11.000000,11.000000
01103455,"TROUT BROOK AT DOVER, MA",Non-ref,NorthEast,9.706500,01,42.253990,-71.293390,MA,,yes,2.000000,2.000000,2.000000
01103500,"CHARLES RIVER AT DOVER, MA",Non-ref,NorthEast,473.319900,01,42.256209,-71.260056,MA,,yes,72.000000,60.000000,20.000000
01104200,"CHARLES RIVER AT WELLESLEY, MA",Non-ref,NorthEast,548.374500,01,42.316486,-71.227833,MA,,yes,50.000000,50.000000,20.000000
01104430,"HOBBS BK BELOW CAMBRIDGE RES NR KENDALL GREEN, MA",Non-ref,NorthEast,17.495100,01,42.398151,-71.273390,MA,,yes,12.000000,12.000000,12.000000
01104460,"STONY BROOK AT RT 20 AT WALTHAM, MA",Non-ref,NorthEast,57.117600,01,42.368985,-71.270612,MA,,yes,8.000000,8.000000,8.000000
01104475,"STONY BROOK RES., UNNAMED TRIB 1, NEAR WESTON, MA",Non-ref,NorthEast,2.080800,01,42.354541,-71.268112,MA,,yes,5.000000,5.000000,5.000000
01104500,"CHARLES RIVER AT WALTHAM, MA",Non-ref,NorthEast,647.412300,01,42.372319,-71.233667,MA,,yes,78.000000,60.000000,20.000000
01105000,"NEPONSET RIVER AT NORWOOD, MA",Non-ref,NorthEast,84.877800,01,42.177599,-71.200886,MA,,yes,70.000000,60.000000,20.000000
01105500,"EAST BRANCH NEPONSET RIVER AT CANTON, MA",Non-ref,NorthEast,60.712200,01,42.154544,-71.145884,MA,,yes,57.000000,57.000000,20.000000
01105554,"NEPONSET RIVER AT GREENLODGE ST NEAR CANTON, MA",Non-ref,NorthEast,220.701600,01,42.209266,-71.145885,MA,,yes,5.000000,5.000000,5.000000
011055566,"NEPONSET RIVER AT MILTON VILLAGE, MA",Non-ref,NorthEast,271.838700,01,42.270930,-71.068380,MA,,yes,12.000000,12.000000,12.000000
01105583,"MONATIQUOT RIVER AT EAST BRAINTREE, MA",Non-ref,NorthEast,73.576800,01,42.220933,-70.978103,MA,,yes,3.000000,3.000000,3.000000
01105585,"TOWN BROOK AT QUINCY, MA",Non-ref,NorthEast,11.131200,01,42.247877,-70.997270,MA,,yes,25.000000,25.000000,11.000000
01105600,"OLD SWAMP RIVER NEAR SOUTH WEYMOUTH, MA",Non-ref,NorthEast,12.660300,01,42.190378,-70.944768,MA,,yes,43.000000,43.000000,20.000000
01105638,"WEIR RIVER AT LEAVITT STREET AT HINGHAM, MA",Non-ref,NorthEast,39.229200,01,42.234820,-70.871990,MA,,yes,3.000000,3.000000,3.000000
01105730,"INDIAN HEAD RIVER AT HANOVER, MA",Non-ref,NorthEast,79.567200,01,42.100657,-70.822541,MA,,yes,43.000000,43.000000,20.000000
01105870,"JONES RIVER AT KINGSTON, MA",Non-ref,NorthEast,55.143900,01,41.990936,-70.733649,MA,,yes,42.000000,42.000000,19.000000
011058756,"EEL RIVER AT RUSSELL MILL RD NEAR PLYMOUTH, MA",Non-ref,SECstPlain,11.502000,01,41.917600,-70.626420,MA,,yes,2.000000,2.000000,2.000000
01105876,"EEL RIVER AT RT 3A NEAR PLYMOUTH, MA",Non-ref,SECstPlain,34.949700,01,41.941770,-70.622534,MA,,yes,4.000000,4.000000,3.000000
01105880,"HERRING RIVER AT NORTH HARWICH, MA",Non-ref,SECstPlain,25.522200,01,41.700111,-70.106962,MA,,yes,24.000000,24.000000,2.000000
01105917,"MATTAPOISETT RIVER NEAR MATTAPOISETT, MA",Non-ref,NorthEast,61.272000,01,41.662604,-70.838370,MA,,yes,3.000000,3.000000,3.000000
01105933,"PASKAMANSET RIVER NEAR SOUTH DARTMOUTH, MA",Non-ref,NorthEast,68.098500,01,41.585382,-70.990317,MA,,yes,14.000000,14.000000,14.000000
01106000,"ADAMSVILLE BROOK AT ADAMSVILLE, RI",Non-ref,NorthEast,22.066240,01,41.558437,-71.129210,RI,,,38.000000,29.000000,0.000000
01106500,"MATFIELD RIVER AT ELMWOOD, MA",Non-ref,NorthEast,104.470200,01,42.015380,-70.961150,MA,,yes,2.000000,2.000000,2.000000
01108000,"TAUNTON RIVER NEAR BRIDGEWATER, MA",Non-ref,NorthEast,677.638800,01,41.933990,-70.956431,MA,,yes,61.000000,41.000000,13.000000
01108320,"CANOE RIVER NEAR NORTON, MA",Non-ref,NorthEast,57.860100,01,41.977320,-71.143940,MA,,yes,3.000000,3.000000,3.000000
01108410,"MILL RIVER AT SPRING STREET AT TAUNTON, MA",Non-ref,NorthEast,122.022000,01,41.899823,-71.089490,MA,,yes,2.000000,2.000000,2.000000
01108500,"WADING RIVER AT WEST MANSFIELD, MA",Non-ref,NorthEast,51.779700,01,42.000099,-71.260053,MA,,,33.000000,33.000000,0.000000
01109000,"WADING RIVER NEAR NORTON, MA",Non-ref,NorthEast,112.742900,01,41.947600,-71.176716,MA,,yes,84.000000,60.000000,20.000000
01109060,"THREEMILE RIVER AT NORTH DIGHTON, MA",Non-ref,NorthEast,220.104900,01,41.866212,-71.122824,MA,,yes,43.000000,43.000000,20.000000
01109070,"SEGREGANSET RIVER NEAR DIGHTON, MA",Non-ref,NorthEast,27.167400,01,41.840379,-71.142824,MA,,yes,42.000000,42.000000,19.000000
01109090,"RATTLESNAKE BROOK NEAR ASSONET, MA",Ref,NorthEast,12.771000,01,41.776770,-71.089210,MA,,yes,2.000000,2.000000,2.000000
01109220,"PALMER RIVER AT SOUTH REHOBOTH, MA",Non-ref,NorthEast,78.930890,01,41.809270,-71.277830,MA,,yes,3.000000,3.000000,3.000000
01109403,"TEN MILE RIVER AT PAWTUCKET AVE @ E PROVIDENCE, RI",Non-ref,NorthEast,137.592000,01,41.830934,-71.351165,RI,,yes,23.000000,23.000000,20.000000
01109500,"KETTLE BROOK AT WORCESTER, MA",Non-ref,NorthEast,82.224000,01,42.232038,-71.834794,MA,,,55.000000,29.000000,0.000000
01109730,"BLACKSTONE RIVER, W. MAIN ST., AT MILLBURY, MA",Non-ref,NorthEast,185.751900,01,42.188984,-71.765070,MA,,yes,7.000000,7.000000,7.000000
01110000,"QUINSIGAMOND RIVER AT NORTH GRAFTON, MA",Non-ref,NorthEast,66.082790,01,42.230372,-71.710902,MA,,yes,70.000000,60.000000,20.000000
01110500,"BLACKSTONE RIVER AT NORTHBRIDGE, MA",Non-ref,NorthEast,363.521700,01,42.153707,-71.652011,MA,,,45.000000,36.000000,8.000000
01111050,"MUMFORD RIVER AT UXBRIDGE, MA",Non-ref,NorthEast,145.385100,01,42.075100,-71.624790,MA,,yes,4.000000,4.000000,4.000000
01111200,"WEST RIVER BELOW WEST HILL DAM, NR UXBRIDGE, MA",Non-ref,NorthEast,72.379800,01,42.104819,-71.607287,MA,,yes,35.000000,35.000000,8.000000
01111212,"BLACKSTONE RIVER, RT 122 BRIDGE NEAR UXBRIDGE, MA",Non-ref,NorthEast,631.430100,01,42.054820,-71.616454,MA,,yes,3.000000,3.000000,3.000000
01111225,"EMERSON BROOK NEAR UXBRIDGE, MA",Non-ref,NorthEast,18.057600,01,42.044540,-71.622010,MA,,yes,2.000000,2.000000,2.000000
01111300,"NIPMUC RIVER NEAR HARRISVILLE, RI",Non-ref,NorthEast,41.062500,01,41.981209,-71.685901,RI,,yes,43.000000,43.000000,18.000000
01111500,"BRANCH RIVER AT FORESTDALE, RI",Non-ref,NorthEast,237.239100,01,41.996487,-71.562563,RI,,yes,69.000000,60.000000,20.000000
01112500,"BLACKSTONE RIVER AT WOONSOCKET, RI",Non-ref,NorthEast,1047.424000,01,42.006209,-71.503117,RI,,yes,80.000000,60.000000,20.000000
01113695,"CATAMINT BROOK AT CUMBERLAND, RI",Non-ref,NorthEast,10.649700,01,41.985100,-71.413670,RI,,yes,10.000000,10.000000,10.000000
01113895,BLACKSTONE R AT ROOSEVELT ST AT PAWTUCKET RI,Non-ref,NorthEast,1247.535000,01,41.888711,-71.381445,RI,,yes,5.000000,5.000000,5.000000
01114000,"MOSHASSUCK RIVER AT PROVIDENCE, RI",Non-ref,NorthEast,60.427740,01,41.833989,-71.411168,RI,,yes,45.000000,45.000000,19.000000
01114500,"WOONASQUATUCKET RIVER AT CENTERDALE, RI",Non-ref,NorthEast,98.873500,01,41.858988,-71.487282,RI,,yes,68.000000,60.000000,20.000000
01115098,"PEEPTOAD BROOK AT ELMDALE RD NR NORTH SCITUATE, RI",Non-ref,NorthEast,13.356900,01,41.852599,-71.606175,RI,,yes,15.000000,15.000000,15.000000
01115187,"PONAGANSET RIVER AT SOUTH FOSTER, RI",Non-ref,NorthEast,38.825100,01,41.818710,-71.705068,RI,,yes,15.000000,15.000000,15.000000
01115630,"NOOSENECK RIVER AT NOOSENECK, RI",Ref,NorthEast,21.736800,01,41.626767,-71.632565,RI,,yes,19.000000,19.000000,2.000000
01115670,"CONGDON RIVER NEAR NOOSENECK, RI",Ref,NorthEast,10.899000,01,41.612322,-71.622842,RI,,yes,3.000000,3.000000,3.000000
01115770,"CARR RIVER NEAR NOOSENECK, RI",Ref,NorthEast,18.908100,01,41.643156,-71.607842,RI,,yes,18.000000,18.000000,3.000000
01116000,"SOUTH BRANCH PAWTUXET RIVER AT WASHINGTON, RI",Non-ref,NorthEast,168.257700,01,41.690100,-71.565896,RI,,yes,69.000000,60.000000,20.000000
01116500,"PAWTUXET RIVER AT CRANSTON, RI",Non-ref,NorthEast,525.019500,01,41.750934,-71.445058,RI,,yes,68.000000,59.000000,19.000000
01116905,"HUNT R 250 FT DS FRY BRK AT FRENCHTOWN, RI",Non-ref,NorthEast,40.761900,01,41.630000,-71.478889,RI,,yes,2.000000,2.000000,2.000000
01117000,"HUNT RIVER NEAR EAST GREENWICH, RI",Non-ref,NorthEast,59.684400,01,41.641212,-71.445335,RI,,yes,69.000000,60.000000,20.000000
01117350,"CHIPUXET RIVER AT WEST KINGSTON, RI",Non-ref,NorthEast,25.213500,01,41.482323,-71.551172,RI,,yes,37.000000,37.000000,20.000000
01117370,QUEEN R AT LIBERTY RD AT LIBERTY RI,Ref,NorthEast,50.477400,01,41.538990,-71.568673,RI,,yes,11.000000,11.000000,11.000000
01117420,"USQUEPAUG RIVER NEAR USQUEPAUG, RI",Non-ref,NorthEast,93.135600,01,41.476767,-71.604785,RI,,yes,35.000000,35.000000,20.000000
01117430,"PAWCATUCK RIVER AT KENYON, RI",Non-ref,NorthEast,189.044100,01,41.446212,-71.621174,RI,,yes,5.000000,5.000000,4.000000
01117468,"BEAVER RIVER NEAR USQUEPAUG, RI",Ref,NorthEast,25.341300,01,41.492600,-71.628119,RI,yes,yes,34.000000,34.000000,20.000000
01117500,"PAWCATUCK RIVER AT WOOD RIVER JUNCTION, RI",Non-ref,NorthEast,260.437500,01,41.445100,-71.680898,RI,,yes,68.000000,60.000000,20.000000
01117800,"WOOD RIVER NEAR ARCADIA, RI",Ref,NorthEast,90.765910,01,41.573988,-71.720623,RI,,yes,43.000000,43.000000,19.000000
01118000,"WOOD RIVER AT HOPE VALLEY, RI",Non-ref,NorthEast,193.211100,01,41.498155,-71.716456,RI,,yes,68.000000,60.000000,20.000000
01118300,"PENDLETON HILL BROOK NEAR CLARKS FALLS, CT.",Ref,NorthEast,10.364400,01,41.474821,-71.834237,CT,yes,yes,51.000000,51.000000,20.000000
01118500,"PAWCATUCK RIVER AT WESTERLY, RI",Non-ref,NorthEast,765.774000,01,41.383711,-71.833125,RI,,yes,68.000000,60.000000,20.000000
01119384,"WILLIMANTIC RIVER NEAR MANSFIELD DEPOT, CT",Non-ref,NorthEast,255.642300,01,41.816111,-72.316944,CT,,yes,3.000000,3.000000,3.000000
01119500,"WILLIMANTIC RIVER NEAR COVENTRY, CT.",Non-ref,NorthEast,314.846100,01,41.750654,-72.265635,CT,,yes,78.000000,60.000000,20.000000
01120000,"HOP R NR COLUMBIA, CT.",Non-ref,NorthEast,192.858300,01,41.727599,-72.302303,CT,,,39.000000,22.000000,0.000000
01120500,"SAFFORD BK NR WOODSTOCK VALLEY, CT.",Ref,NorthEast,6.656400,01,41.926486,-72.057020,CT,,,31.000000,31.000000,0.000000
01121000,"MOUNT HOPE RIVER NEAR WARRENVILLE, CT.",Ref,NorthEast,70.253720,01,41.843709,-72.168966,CT,yes,yes,69.000000,60.000000,20.000000
01122000,"NATCHAUG RIVER AT WILLIMANTIC, CT.",Non-ref,NorthEast,453.290400,01,41.719821,-72.195634,CT,,yes,73.000000,54.000000,14.000000
01122500,"SHETUCKET RIVER NEAR WILLIMANTIC, CT.",Non-ref,NorthEast,1048.470000,01,41.700376,-72.182022,CT,,yes,81.000000,60.000000,20.000000
01123000,"LITTLE RIVER NEAR HANOVER, CT.",Ref,NorthEast,77.852710,01,41.671765,-72.052298,CT,yes,yes,58.000000,58.000000,20.000000
011230695,"SHETUCKET RIVER AT TAFTVILLE, CONN.",Non-ref,NorthEast,1330.078000,01,41.568430,-72.045080,CT,,yes,9.000000,9.000000,9.000000
01123360,"QUINEBAUG R BL E BRIMFIELD DAM AT FISKDALE, MA",Non-ref,NorthEast,162.272700,01,42.108706,-72.123688,MA,,yes,25.000000,25.000000,8.000000
01123600,"QUINEBAUG R BL WESTVILLE DAM NR SOUTHBRIDGE, MA",Non-ref,NorthEast,244.619100,01,42.082873,-72.057020,MA,,yes,34.000000,34.000000,7.000000
01124000,"QUINEBAUG RIVER AT QUINEBAUG, CT.",Non-ref,NorthEast,392.000400,01,42.022319,-71.955629,CT,,yes,77.000000,59.000000,19.000000
01124151,"QUINEBAUG R AT WEST THOMPSON, CONN.",Non-ref,NorthEast,433.911600,01,41.943431,-71.900350,CT,,yes,34.000000,34.000000,11.000000
01124350,"FRENCH RIVER BELOW DAM, AT HODGES VILLAGE, MA",Non-ref,NorthEast,80.460900,01,42.118429,-71.881183,MA,,yes,29.000000,29.000000,2.000000
01124500,"LITTLE RIVER NEAR OXFORD, MA",Non-ref,NorthEast,72.597600,01,42.115929,-71.890072,MA,,yes,52.000000,42.000000,2.000000
01125000,"FRENCH RIVER AT WEBSTER, MA",Non-ref,NorthEast,222.231900,01,42.050930,-71.885072,MA,,yes,33.000000,33.000000,1.000000
01125100,"FRENCH R AT N GROSVENORDALE, CT.",Non-ref,NorthEast,262.327700,01,41.978150,-71.900350,CT,,yes,7.000000,7.000000,7.000000
01125500,"QUINEBAUG RIVER AT PUTNAM, CT",Non-ref,NorthEast,839.918700,01,41.909264,-71.912850,CT,,yes,53.000000,34.000000,14.000000
01126000,"FIVEMILE R AT KILLINGLY, CT.",Non-ref,NorthEast,150.376500,01,41.837321,-71.885350,CT,,,33.000000,22.000000,0.000000
01126500,"MOOSUP R AT MOOSUP, CT.",Non-ref,NorthEast,211.515300,01,41.710377,-71.885906,CT,,,39.000000,22.000000,0.000000
01127000,"QUINEBAUG RIVER AT JEWETT CITY, CT.",Non-ref,NorthEast,1838.699000,01,41.597876,-71.984242,CT,,yes,90.000000,59.000000,19.000000
01127500,"YANTIC RIVER AT YANTIC, CT.",Non-ref,NorthEast,230.734500,01,41.558709,-72.121467,CT,,yes,79.000000,60.000000,20.000000
01127880,"BIG BROOK NEAR PITTSBURG, NH",Ref,NorthEast,16.962300,01,45.135046,-71.205908,NH,,,20.000000,20.000000,0.000000
01128500,"CONNECTICUT R AT FIRST CONN LK NR PITTSBURG, NH",Non-ref,NorthEast,215.651700,01,45.087268,-71.292299,NH,,,73.000000,41.000000,1.000000
01129200,"CONNECTICUT R BELOW INDIAN STREAM NR PITTSBURG, NH",Non-ref,NorthEast,658.744200,01,45.040324,-71.443971,NH,,yes,53.000000,53.000000,20.000000
01130000,"UPPER AMMONOOSUC RIVER NEAR GROVETON, NH",Ref,NorthEast,597.954700,01,44.625053,-71.468972,NH,,yes,62.000000,53.000000,15.000000
01133000,"EAST BRANCH PASSUMPSIC RIVER NEAR EAST HAVEN, VT",Non-ref,NorthEast,138.302100,01,44.633942,-71.897594,VT,,yes,49.000000,42.000000,12.000000
01134500,"MOOSE RIVER AT VICTORY, VT",Ref,NorthEast,195.129900,01,44.511723,-71.837314,VT,yes,yes,62.000000,60.000000,20.000000
01135000,"MOOSE RIVER AT ST. JOHNSBURY, VT",Ref,NorthEast,334.305000,01,44.422836,-72.000094,VT,,,55.000000,34.000000,0.000000
01135150,"POPE BROOK (SITE W-3) NEAR NORTH DANVILLE, VT",Ref,NorthEast,10.101600,01,44.476167,-72.124543,VT,,yes,18.000000,18.000000,18.000000
01135300,"SLEEPERS RIVER (SITE W-5) NEAR ST. JOHNSBURY, VT",Ref,NorthEast,111.117300,01,44.435335,-72.038429,VT,,yes,19.000000,19.000000,19.000000
01135500,"PASSUMPSIC RIVER AT PASSUMPSIC, VT",Non-ref,NorthEast,1124.902000,01,44.365615,-72.039261,VT,,yes,80.000000,60.000000,20.000000
01137500,"AMMONOOSUC RIVER AT BETHLEHEM JUNCTION, NH",Ref,NorthEast,228.554300,01,44.268674,-71.630362,NH,yes,yes,70.000000,60.000000,20.000000
01138000,"AMMONOOSUC RIVER NEAR BATH, NH",Ref,NorthEast,1026.288000,01,44.153953,-71.985645,NH,,,45.000000,31.000000,0.000000
01139000,"WELLS RIVER AT WELLS RIVER, VT",Ref,NorthEast,246.333300,01,44.150341,-72.065092,VT,yes,yes,69.000000,60.000000,20.000000
01139800,"EAST ORANGE BRANCH AT EAST ORANGE, VT",Ref,NorthEast,22.799700,01,44.092842,-72.335653,VT,yes,yes,51.000000,51.000000,20.000000
01141500,"OMPOMPANOOSUC RIVER AT UNION VILLAGE, VT",Non-ref,NorthEast,338.451300,01,43.790070,-72.254813,VT,,,49.000000,40.000000,0.000000
01141800,"MINK BROOK NEAR ETNA, NH",Ref,NorthEast,12.280500,01,43.702293,-72.187033,NH,,,36.000000,36.000000,9.000000
01142500,"AYERS BROOK AT RANDOLPH, VT",Ref,NorthEast,82.166680,01,43.934510,-72.657882,VT,yes,yes,69.000000,59.000000,20.000000
01144000,"WHITE RIVER AT WEST HARTFORD, VT",Ref,NorthEast,1790.244000,01,43.714236,-72.418149,VT,yes,yes,93.000000,60.000000,20.000000
01145000,"MASCOMA RIVER AT WEST CANAAN, NH",Ref,NorthEast,208.134900,01,43.651183,-72.084808,NH,,,39.000000,29.000000,0.000000
01150500,"MASCOMA RIVER AT MASCOMA, NH",Non-ref,NorthEast,397.679400,01,43.648960,-72.182033,NH,,,81.000000,55.000000,15.000000
01150900,"OTTAUQUECHEE RIVER NEAR WEST BRIDGEWATER, VT",Ref,NorthEast,61.166700,01,43.622291,-72.758990,VT,yes,yes,25.000000,25.000000,20.000000
01151500,"OTTAUQUECHEE RIVER AT NORTH HARTLAND, VT",Non-ref,NorthEast,576.152100,01,43.602571,-72.354258,VT,,yes,79.000000,60.000000,20.000000
01152500,"SUGAR RIVER AT WEST CLAREMONT, NH",Non-ref,NorthEast,700.379100,01,43.387573,-72.362034,NH,,yes,81.000000,60.000000,20.000000
01153000,"BLACK RIVER AT NORTH SPRINGFIELD, VT",Non-ref,NorthEast,411.578100,01,43.333407,-72.514813,VT,,,59.000000,40.000000,0.000000
01153500,"WILLIAMS RIVER AT BROCKWAYS MILLS, VT",Ref,NorthEast,263.330100,01,43.208687,-72.517589,VT,,,44.000000,35.000000,0.000000
01153550,WILLIAMS RIVER NEAR ROCKINGHAM VT,Non-ref,NorthEast,289.550700,01,43.191743,-72.485089,VT,,yes,23.000000,23.000000,20.000000
01154000,"SAXTONS RIVER AT SAXTONS RIVER, VT",Ref,NorthEast,187.327800,01,43.137578,-72.488144,VT,,yes,50.000000,41.000000,8.000000
01154500,"CONNECTICUT RIVER AT NORTH WALPOLE, NH",Non-ref,NorthEast,14220.090000,01,43.126189,-72.436755,NH,,yes,67.000000,60.000000,20.000000
01155000,"COLD RIVER AT DREWSVILLE, NH",Ref,NorthEast,215.418600,01,43.131744,-72.390366,NH,,,38.000000,29.000000,0.000000
01155500,"WEST RIVER AT JAMAICA, VT",Non-ref,NorthEast,459.811800,01,43.108967,-72.775374,VT,,yes,57.000000,54.000000,14.000000
01155910,"WEST RIVER BELOW TOWNSHEND DAM NEAR TOWNSHEND, VT",Non-ref,NorthEast,723.280500,01,43.051190,-72.700094,VT,,yes,6.000000,6.000000,6.000000
01156000,"WEST RIVER AT NEWFANE, VT",Non-ref,NorthEast,792.067500,01,42.995358,-72.636481,VT,,,65.000000,40.000000,0.000000
01156500,"CONNECTICUT RIVER AT VERNON, VT",Non-ref,NorthEast,16213.360000,01,42.771471,-72.514256,VT,,,29.000000,24.000000,0.000000
01157000,"ASHUELOT RIVER NEAR GILSUM, NH",Non-ref,NorthEast,182.578500,01,43.039246,-72.270086,NH,,yes,58.000000,31.000000,0.000000
01158000,"ASHUELOT RIVER BELOW SURRY MT DAM, NEAR KEENE, NH",Non-ref,NorthEast,263.925000,01,42.994802,-72.311197,NH,,yes,58.000000,54.000000,14.000000
01158600,"OTTER BROOK BELOW OTTER BROOK DAM, NEAR KEENE, NH",Non-ref,NorthEast,122.395500,01,42.945914,-72.236751,NH,,yes,45.000000,45.000000,14.000000
01160000,"S BR ASHUELOT RIVER AT WEBB, NR MARLBOROUGH, NH",Non-ref,NorthEast,92.916000,01,42.872027,-72.213695,NH,,yes,58.000000,29.000000,0.000000
01160350,"ASHUELOT RIVER AT WEST SWANZEY, NH",Non-ref,NorthEast,818.018100,01,42.871193,-72.327864,NH,,yes,15.000000,15.000000,15.000000
01161000,"ASHUELOT RIVER AT HINSDALE, NH",Non-ref,NorthEast,1089.694000,01,42.785916,-72.486200,NH,,yes,99.000000,60.000000,20.000000
01161500,"TARBELL BROOK NEAR WINCHENDON, MA",Non-ref,NorthEast,48.037500,01,42.712586,-72.085359,MA,,,66.000000,33.000000,0.000000
01162000,"MILLERS RIVER NEAR WINCHENDON, MA",Non-ref,NorthEast,212.624100,01,42.684253,-72.083414,MA,,yes,93.000000,60.000000,20.000000
01162500,"PRIEST BROOK NEAR WINCHENDON, MA",Ref,NorthEast,49.705590,01,42.682586,-72.115081,MA,yes,yes,90.000000,60.000000,20.000000
01163200,"OTTER RIVER AT OTTER RIVER, MA",Non-ref,NorthEast,88.449670,01,42.588421,-72.040912,MA,,yes,44.000000,44.000000,20.000000
01164000,"MILLERS RIVER AT SOUTH ROYALSTON, MA",Non-ref,NorthEast,491.502600,01,42.629809,-72.150359,MA,,yes,52.000000,42.000000,2.000000
01165000,"EAST BRANCH TULLY RIVER NEAR ATHOL, MA",Non-ref,NorthEast,129.529800,01,42.642308,-72.225639,MA,,yes,74.000000,41.000000,1.000000
01165500,"MOSS BROOK AT WENDELL DEPOT, MA",Ref,NorthEast,32.857200,01,42.602864,-72.359530,MA,,,66.000000,33.000000,0.000000
01166500,"MILLERS RIVER AT ERVING, MA",Non-ref,NorthEast,965.455300,01,42.597586,-72.438142,MA,,yes,94.000000,60.000000,20.000000
01168151,"DEERFIELD RIVER NEAR ROWE, MA",Non-ref,NorthEast,660.720600,01,42.682583,-72.976489,MA,,,23.000000,23.000000,8.000000
01168500,"DEERFIELD RIVER AT CHARLEMONT, MA",Non-ref,NorthEast,938.503800,01,42.625918,-72.855096,MA,,yes,95.000000,59.000000,19.000000
01169000,"NORTH RIVER AT SHATTUCKVILLE, MA",Ref,NorthEast,230.641200,01,42.638418,-72.725092,MA,yes,yes,69.000000,60.000000,20.000000
01169900,"SOUTH RIVER NEAR CONWAY, MA",Non-ref,NorthEast,62.308750,01,42.542030,-72.693702,MA,,yes,43.000000,43.000000,20.000000
01170000,"DEERFIELD RIVER NEAR WEST DEERFIELD, MA",Non-ref,NorthEast,1451.378000,01,42.535919,-72.653423,MA,,yes,68.000000,59.000000,19.000000
01170100,"GREEN RIVER NEAR COLRAIN, MA",Ref,NorthEast,106.992400,01,42.703417,-72.670648,MA,yes,yes,42.000000,42.000000,20.000000
01170500,"CONNECTICUT RIVER AT MONTAGUE CITY, MA",Non-ref,NorthEast,20389.690000,01,42.578697,-72.574533,MA,,yes,105.000000,60.000000,20.000000
01170930,"MILL RIVER AT CHRISTIAN LANE AT WHATELY, MA",Ref,NorthEast,47.097000,01,42.444530,-72.629810,MA,,yes,3.000000,3.000000,3.000000
01171300,"FORT RIVER NEAR AMHERST, MA",Non-ref,NorthEast,107.627100,01,42.358424,-72.505920,MA,,,30.000000,30.000000,7.000000
01171500,"MILL RIVER AT NORTHAMPTON, MA",Non-ref,NorthEast,139.787200,01,42.318978,-72.665091,MA,,yes,70.000000,60.000000,20.000000
01172500,"WARE RIVER NEAR BARRE, MA",Non-ref,NorthEast,142.693200,01,42.425090,-72.024521,MA,,yes,62.000000,59.000000,19.000000
01173000,"WARE RIVER AT INTAKE WORKS NEAR BARRE, MA",Non-ref,NorthEast,248.972800,01,42.390646,-72.060355,MA,,yes,79.000000,58.000000,18.000000
01173500,"WARE RIVER AT GIBBS CROSSING, MA",Non-ref,NorthEast,510.333300,01,42.236204,-72.272581,MA,,yes,97.000000,60.000000,20.000000
01174000,"HOP BROOK NEAR NEW SALEM, MA",Ref,NorthEast,9.151200,01,42.478422,-72.334251,MA,,,34.000000,33.000000,0.000000
01174500,"EAST BRANCH SWIFT RIVER NEAR HARDWICK, MA",Non-ref,NorthEast,113.035500,01,42.393424,-72.238693,MA,,yes,72.000000,60.000000,20.000000
01174565,"WEST BRANCH SWIFT RIVER NEAR SHUTESBURY, MA",Ref,NorthEast,32.994000,01,42.455089,-72.381752,MA,,yes,15.000000,15.000000,14.000000
01174600,"CADWELL CREEK NEAR PELHAM, MA",Ref,NorthEast,1.620900,01,42.354535,-72.387862,MA,,,33.000000,33.000000,5.000000
01174900,"CADWELL CREEK NEAR BELCHERTOWN, MA",Ref,NorthEast,7.106400,01,42.335646,-72.369528,MA,,,36.000000,36.000000,8.000000
01175500,"SWIFT RIVER AT WEST WARE, MA",Non-ref,NorthEast,489.917500,01,42.267870,-72.332582,MA,,yes,96.000000,59.000000,19.000000
01175670,"SEVENMILE RIVER NEAR SPENCER, MA",Non-ref,NorthEast,23.951700,01,42.265092,-72.004797,MA,,yes,47.000000,47.000000,19.000000
01176000,"QUABOAG RIVER AT WEST BRIMFIELD, MA",Non-ref,NorthEast,387.159300,01,42.182316,-72.263691,MA,,yes,96.000000,59.000000,19.000000
01176780,"TWELVEMILE BROOK NEAR NORTH WILBRAHAM, MA",Ref,NorthEast,35.358300,01,42.147872,-72.399528,MA,,yes,1.000000,1.000000,1.000000
01177000,"CHICOPEE RIVER AT INDIAN ORCHARD, MA",Non-ref,NorthEast,1785.374000,01,42.160649,-72.513976,MA,,yes,81.000000,60.000000,20.000000
01179500,"WESTFIELD RIVER AT KNIGHTVILLE, MA",Non-ref,NorthEast,422.132400,01,42.287867,-72.864264,MA,,yes,94.000000,54.000000,14.000000
01180000,"SYKES BROOK AT KNIGHTVILLE, MA",Ref,NorthEast,3.607200,01,42.290922,-72.870375,MA,,,28.000000,24.000000,0.000000
01180500,"MIDDLE B WESTFIELD RIVER AT GOSS HEIGHTS, MA",Non-ref,NorthEast,136.680300,01,42.258700,-72.872597,MA,,yes,81.000000,42.000000,2.000000
01181000,"WEST BRANCH WESTFIELD RIVER AT HUNTINGTON, MA",Ref,NorthEast,243.495000,01,42.237312,-72.895654,MA,yes,yes,74.000000,60.000000,20.000000
01183500,"WESTFIELD RIVER NEAR WESTFIELD, MA",Non-ref,NorthEast,1292.801000,01,42.106760,-72.698981,MA,,yes,95.000000,60.000000,20.000000
01184000,"CONNECTICUT RIVER AT THOMPSONVILLE, CT.",Non-ref,NorthEast,25049.460000,01,41.987319,-72.605367,CT,,yes,81.000000,60.000000,20.000000
01184100,"STONY BROOK NEAR WEST SUFFIELD, CT.",Non-ref,NorthEast,24.645710,01,41.960652,-72.710371,CT,,yes,28.000000,28.000000,20.000000
01184490,"BROAD BROOK AT BROAD BROOK, CT.",Non-ref,NorthEast,38.063680,01,41.913889,-72.550000,CT,,yes,42.000000,42.000000,20.000000
01184500,"SCANTIC R AT BROAD BROOK, CT.",Non-ref,NorthEast,253.031200,01,41.911764,-72.562866,CT,,,43.000000,22.000000,0.000000
01185500,"WEST BRANCH FARMINGTON RIVER NEAR NEW BOSTON, MA",Non-ref,NorthEast,237.425400,01,42.079259,-73.072884,MA,,yes,96.000000,60.000000,20.000000
01186000,"WEST BRANCH FARMINGTON RIVER AT RIVERTON, CT",Non-ref,NorthEast,333.584100,01,41.962873,-73.017606,CT,,yes,53.000000,53.000000,19.000000
01186500,"STILL RIVER AT ROBERTSVILLE, CT.",Non-ref,NorthEast,221.487300,01,41.967317,-73.033996,CT,,yes,58.000000,57.000000,19.000000
01187300,"HUBBARD RIVER NR. WEST HARTLAND, CT.",Ref,NorthEast,53.919000,01,42.037316,-72.938991,MA,yes,yes,70.000000,59.000000,20.000000
01187400,"VALLEY BK NR WEST HARTLAND, CT.",Ref,NorthEast,19.138500,01,42.034261,-72.929824,CT,,,32.000000,23.000000,0.000000
01187800,"NEPAUG R NR NEPAUG, CT.",Ref,NorthEast,61.574400,01,41.820653,-72.970104,CT,,,52.000000,24.000000,3.000000
01188000,"BURLINGTON BROOK NEAR BURLINGTON, CT.",Ref,NorthEast,10.623500,01,41.786209,-72.964826,CT,,yes,77.000000,59.000000,19.000000
01188090,"FARMINGTON RIVER AT UNIONVILLE, CT.",Non-ref,NorthEast,977.783000,01,41.755933,-72.886768,CT,,yes,31.000000,31.000000,19.000000
01189000,"PEQUABUCK R AT FORESTVILLE, CT.",Non-ref,NorthEast,116.446600,01,41.673154,-72.900657,CT,,yes,67.000000,59.000000,19.000000
01189995,"FARMINGTON RIVER AT TARIFFVILLE, CT.",Non-ref,NorthEast,1492.974000,01,41.908431,-72.760651,CT,,yes,38.000000,38.000000,20.000000
01190000,"FARMINGTON R AT RAINBOW, CT.",Non-ref,NorthEast,1522.522000,01,41.911486,-72.687315,CT,,,58.000000,37.000000,0.000000
01190500,"SOUTH BRANCH PARK R AT HARTFORD, CT.",Non-ref,NorthEast,103.704300,01,41.733989,-72.713706,CT,,,45.000000,32.000000,0.000000
01191000,"NORTH BRANCH PARK R AT HARTFORD, CT.",Non-ref,NorthEast,68.907540,01,41.784266,-72.708149,CT,,,49.000000,37.000000,0.000000
01192500,"HOCKANUM RIVER NEAR EAST HARTFORD, CT.",Non-ref,NorthEast,190.667800,01,41.783155,-72.587311,CT,,yes,77.000000,54.000000,19.000000
01192883,"COGINCHAUG RIVER AT MIDDLEFIELD, CT",Non-ref,NorthEast,77.858800,01,41.520098,-72.705929,CT,,yes,28.000000,28.000000,20.000000
01193500,"SALMON RIVER NEAR EAST HAMPTON, CT.",Ref,NorthEast,271.256300,01,41.552321,-72.449253,CT,,yes,80.000000,59.000000,19.000000
01194000,"EIGHTMILE R AT NORTH PLAIN, CT.",Ref,NorthEast,52.311600,01,41.441770,-72.332860,CT,,yes,30.000000,18.000000,1.000000
01194500,"EAST BRANCH EIGHTMILE RIVER NEAR NORTH LYME, CT.",Ref,NorthEast,58.145400,01,41.427876,-72.334250,CT,,yes,51.000000,39.000000,7.000000
01195100,"INDIAN RIVER NEAR CLINTON, CT.",Ref,NorthEast,14.838300,01,41.305932,-72.531201,CT,yes,yes,27.000000,27.000000,20.000000
01195200,"NECK R NR MADISON, CT.",Ref,NorthEast,18.753300,01,41.282598,-72.619260,CT,,,20.000000,20.000000,0.000000
01195490,"QUINNIPIAC RIVER AT SOUTHINGTON, CT.",Non-ref,NorthEast,47.554200,01,41.601765,-72.883713,CT,,yes,21.000000,21.000000,20.000000
01196500,"QUINNIPIAC RIVER AT WALLINGFORD, CT.",Non-ref,NorthEast,285.748800,01,41.449542,-72.840934,CT,,yes,79.000000,60.000000,20.000000
01196561,Muddy River near East Wallingford,Non-ref,NorthEast,22.025700,01,41.435650,-72.779260,CT,,yes,4.000000,4.000000,4.000000
01196620,"MILL R NR HAMDEN, CT.",Non-ref,NorthEast,63.810000,01,41.420931,-72.902880,CT,,yes,33.000000,33.000000,20.000000
01197000,"EAST BRANCH HOUSATONIC RIVER AT COLTSVILLE, MA",Non-ref,NorthEast,149.553900,01,42.469529,-73.196492,MA,,yes,73.000000,60.000000,20.000000
01197500,"HOUSATONIC RIVER NEAR GREAT BARRINGTON, MA",Non-ref,NorthEast,732.862800,01,42.232033,-73.354833,MA,,yes,96.000000,60.000000,20.000000
01198000,"GREEN RIVER NEAR GREAT BARRINGTON, MA",Ref,NorthEast,132.227600,01,42.192034,-73.390669,MA,,yes,24.000000,24.000000,4.000000
01198125,"HOUSATONIC RIVER NR ASHLEY FALLS, MA.",Non-ref,NorthEast,1210.621000,01,42.074814,-73.333449,MA,,yes,4.000000,4.000000,4.000000
01198500,"BLACKBERRY R AT CANAAN, CT.",Non-ref,NorthEast,117.774000,01,42.023981,-73.341784,CT,,,22.000000,22.000000,0.000000
01199000,"HOUSATONIC RIVER AT FALLS VILLAGE, CT.",Non-ref,NorthEast,1643.036000,01,41.957316,-73.369286,CT,,yes,96.000000,59.000000,19.000000
01199050,"SALMON CREEK AT LIME ROCK, CT.",Non-ref,NorthEast,76.098600,01,41.942316,-73.390953,CT,,yes,47.000000,47.000000,19.000000
01199200,"GUINEA BK AT WEST WOODS RD AT ELLSWORTH, CT",Ref,NorthEast,9.018900,01,41.824261,-73.430122,CT,,,21.000000,21.000000,0.000000
01200000,"TENMILE RIVER NEAR GAYLORDSVILLE, CT",Non-ref,NorthEast,532.584900,01,41.658983,-73.528458,NY,,yes,73.000000,54.000000,16.000000
01200500,"HOUSATONIC RIVER AT GAYLORDSVILLE, CT.",Non-ref,NorthEast,2583.356000,01,41.653150,-73.489846,CT,,yes,69.000000,60.000000,20.000000
01201487,"STILL RIVER AT ROUTE 7 AT BROOKFIELD CENTER, CT.",Non-ref,NorthEast,155.074500,01,41.466206,-73.403176,CT,,yes,7.000000,7.000000,7.000000
01202501,"SHEPAUG RIVER AT PETERS DAM AT WOODVILLE, CT",Non-ref,NorthEast,99.612000,01,41.719263,-73.292895,CT,,yes,6.000000,6.000000,6.000000
012035055,POOTATUCK RIVER AT BERKSHIRE,Non-ref,NorthEast,40.815900,01,41.406207,-73.272338,CT,,yes,3.000000,3.000000,3.000000
01203510,"POOTATUCK R AT SANDY HOOK, CT.",Non-ref,NorthEast,64.690200,01,41.420370,-73.282340,CT,,yes,10.000000,10.000000,2.000000
01203600,"NONEWAUG RIVER AT MINORTOWN, CT.",Non-ref,NorthEast,45.874800,01,41.575652,-73.178724,CT,,yes,23.000000,23.000000,8.000000
01203805,"WEEKEEPEEMEE RIVER AT HOTCHKISSVILLE, CT",Ref,NorthEast,70.084800,01,41.557596,-73.215114,CT,,yes,8.000000,8.000000,7.000000
01204000,"POMPERAUG RIVER AT SOUTHBURY, CT.",Non-ref,NorthEast,195.259500,01,41.480651,-73.224559,CT,,yes,76.000000,59.000000,19.000000
01205500,"HOUSATONIC RIVER AT STEVENSON, CT.",Non-ref,NorthEast,3998.594000,01,41.383985,-73.167612,CT,,yes,81.000000,60.000000,20.000000
01205600,"W BR NAUGATUCK R AT TORRINGTON, CT.",Non-ref,NorthEast,87.464710,01,41.800930,-73.123444,CT,,,39.000000,39.000000,6.000000
01205700,"EAST BRANCH NAUGATUCK RIVER AT TORRINGTON, CONN",Non-ref,NorthEast,36.180900,01,41.803430,-73.117888,CT,,,40.000000,40.000000,7.000000
01206900,"NAUGATUCK RIVER AT THOMASTON, CT.",Non-ref,NorthEast,260.773200,01,41.673708,-73.069553,CT,,yes,48.000000,48.000000,19.000000
01208500,"NAUGATUCK RIVER AT BEACON FALLS, CT.",Non-ref,NorthEast,674.430400,01,41.442319,-73.062608,CT,,yes,87.000000,60.000000,20.000000
01208873,"ROOSTER RIVER AT FAIRFIELD, CT",Non-ref,NorthEast,26.030270,01,41.179819,-73.219002,CT,,yes,31.000000,31.000000,19.000000
01208925,"MILL R NR FAIRFIELD, CT",Non-ref,NorthEast,74.514600,01,41.165652,-73.270393,CT,,yes,36.000000,36.000000,19.000000
01208950,"SASCO BROOK NEAR SOUTHPORT, CT.",Ref,NorthEast,19.239300,01,41.152874,-73.305949,CT,,yes,44.000000,44.000000,19.000000
01208990,"SAUGATUCK RIVER NEAR REDDING, CT.",Ref,NorthEast,53.772490,01,41.294540,-73.395120,CT,yes,yes,45.000000,45.000000,20.000000
012095493,"Ridgefield Brook at Shields Lane nr Ridgefield, CT",Non-ref,NorthEast,8.595000,01,41.314230,-73.492480,CT,,yes,6.000000,6.000000,6.000000
01209700,"NORWALK R AT SOUTH WILTON, CT.",Non-ref,NorthEast,77.072400,01,41.163708,-73.419287,CT,,yes,47.000000,47.000000,20.000000
01209761,"FIVEMILE RIVER NEAR NEW CANAAN, CT.",Non-ref,NorthEast,3.313800,01,41.174540,-73.511510,CT,,yes,9.000000,9.000000,9.000000
01209901,"RIPPOWAM RIVER AT STAMFORD, CT.",Non-ref,NorthEast,78.559230,01,41.065652,-73.549290,CT,,yes,13.000000,13.000000,8.000000
01300000,BLIND BROOK AT RYE NY,Non-ref,NorthEast,24.103800,02,40.983709,-73.687351,NY,,,45.000000,40.000000,0.000000
01300500,BEAVER SWAMP BROOK AT MAMARONECK NY,Non-ref,NorthEast,11.724300,02,40.955932,-73.718186,NY,,,45.000000,40.000000,0.000000
01301000,MAMARONECK RIVER AT MAMARONECK NY,Non-ref,NorthEast,58.205920,02,40.954543,-73.734575,NY,,,43.000000,38.000000,0.000000
01301500,HUTCHINSON RIVER AT PELHAM NY,Non-ref,NorthEast,14.504400,02,40.911210,-73.813467,NY,,yes,46.000000,41.000000,1.000000
01302000,BRONX RIVER AT BRONXVILLE NY,Non-ref,NorthEast,113.661000,02,40.935932,-73.835690,NY,,,45.000000,40.000000,0.000000
01302020,BRONX RIVER AT NY BOTANICAL GARDEN AT BRONX NY,Non-ref,NorthEast,101.586600,02,40.862306,-73.874389,NY,,yes,3.000000,3.000000,3.000000
01302500,GLEN COVE CREEK AT GLEN COVE NY,Non-ref,SECstPlain,30.338100,02,40.863433,-73.634294,NY,,yes,65.000000,54.000000,14.000000
01303000,MILL NECK CREEK AT MILL NECK NY,Non-ref,SECstPlain,27.387900,02,40.887599,-73.563736,NY,,yes,66.000000,54.000000,14.000000
01303500,COLD SPRING BROOK AT COLD SPRING HARBOR NY,Non-ref,SECstPlain,19.037700,02,40.857321,-73.463455,NY,,yes,58.000000,58.000000,19.000000
01304000,NISSEQUOGUE RIVER NEAR SMITHTOWN NY,Non-ref,SECstPlain,57.895070,02,40.849542,-73.224281,NY,,yes,66.000000,60.000000,20.000000
01304500,PECONIC RIVER AT RIVERHEAD NY,Non-ref,SECstPlain,192.350700,02,40.913710,-72.686764,NY,,yes,65.000000,58.000000,18.000000
01305000,CARMANS RIVER AT YAPHANK NY,Non-ref,SECstPlain,190.223700,02,40.830376,-72.906215,NY,,yes,67.000000,60.000000,20.000000
01305500,SWAN RIVER AT EAST PATCHOGUE NY,Non-ref,SECstPlain,21.299280,02,40.767043,-72.993719,NY,,yes,63.000000,60.000000,20.000000
01306000,PATCHOGUE RIVER AT PATCHOGUE NY,Non-ref,SECstPlain,36.318600,02,40.765654,-73.020664,NY,,,27.000000,23.000000,0.000000
01306440,CONNETQUOT BROOK AT CENTRAL ISLIP NY,Non-ref,SECstPlain,41.726700,02,40.792598,-73.165669,NY,,yes,29.000000,29.000000,19.000000
01306460,CONNETQUOT BK NR CENTRAL ISLIP NY,Non-ref,SECstPlain,55.712700,02,40.772043,-73.158724,NY,,yes,31.000000,31.000000,20.000000
01306500,CONNETQUOT RIVER NEAR OAKDALE NY,Non-ref,SECstPlain,72.185400,02,40.747598,-73.150391,NY,,,64.000000,58.000000,19.000000
01307000,CHAMPLIN CREEK AT ISLIP NY,Non-ref,SECstPlain,13.993200,02,40.737043,-73.201782,NY,,,21.000000,20.000000,0.000000
01307500,PENATAQUIT CREEK AT BAY SHORE NY,Non-ref,SECstPlain,11.002500,02,40.726210,-73.244284,NY,,,31.000000,27.000000,0.000000
01308000,SAMPAWAMS CREEK AT BABYLON NY,Non-ref,SECstPlain,58.219200,02,40.704266,-73.314008,NY,,yes,62.000000,57.000000,19.000000
01308500,CARLLS RIVER AT BABYLON NY,Non-ref,SECstPlain,94.333360,02,40.708710,-73.328453,NY,,yes,64.000000,59.000000,19.000000
01309000,SANTAPOGUE CREEK AT LINDENHURST NY,Non-ref,SECstPlain,10.031400,02,40.691766,-73.355121,NY,,,22.000000,20.000000,0.000000
01309500,MASSAPEQUA CREEK AT MASSAPEQUA NY,Non-ref,SECstPlain,94.454620,02,40.688989,-73.454846,NY,,yes,62.000000,50.000000,12.000000
01309950,BELLMORE CREEK NEAR BELLMORE NY,Non-ref,SECstPlain,37.778400,02,40.678710,-73.515680,NY,,yes,1.000000,1.000000,1.000000
01310000,BELLMORE CREEK AT BELLMORE NY,Non-ref,SECstPlain,39.503700,02,40.678712,-73.515682,NY,,,65.000000,53.000000,13.000000
01310500,EAST MEADOW BROOK AT FREEPORT NY,Non-ref,SECstPlain,78.071400,02,40.665657,-73.569850,NY,,yes,64.000000,52.000000,14.000000
01311000,PINES BROOK AT MALVERNE NY,Non-ref,SECstPlain,26.152200,02,40.666492,-73.659297,NY,,,60.000000,48.000000,9.000000
01311500,VALLEY STREAM AT VALLEY STREAM NY,Non-ref,SECstPlain,18.059400,02,40.663714,-73.704576,NY,,yes,55.000000,55.000000,20.000000
01311810,CONSELYEAS POND TRIBUTARY AT ROSEDALE NY,Non-ref,SECstPlain,33.541200,02,40.662060,-73.743310,NY,,yes,14.000000,14.000000,14.000000
01312000,HUDSON RIVER NEAR NEWCOMB NY,Non-ref,NorthEast,498.219300,02,43.966174,-74.130704,NY,,yes,68.000000,44.000000,7.000000
01315000,INDIAN RIVER NEAR INDIAN LAKE NY,Non-ref,NorthEast,337.525200,02,43.756453,-74.267093,NY,,yes,95.000000,60.000000,20.000000
01315500,HUDSON RIVER AT NORTH CREEK NY,Non-ref,NorthEast,2058.557000,02,43.700898,-73.983466,NY,,yes,102.000000,60.000000,20.000000
01317000,SCHROON RIVER AT RIVERBANK NY,Non-ref,NorthEast,1355.597000,02,43.609512,-73.737623,NY,,,62.000000,20.000000,0.000000
01318500,HUDSON RIVER AT HADLEY NY,Non-ref,NorthEast,4332.634000,02,43.318960,-73.844289,NY,,yes,88.000000,60.000000,20.000000
01319000,EAST BRANCH SACANDAGA RIVER AT GRIFFIN NY,Ref,NorthEast,292.707000,02,43.473678,-74.223191,NY,,,44.000000,28.000000,0.000000
01321000,SACANDAGA RIVER NEAR HOPE NY,Non-ref,NorthEast,1263.694000,02,43.352847,-74.270415,NY,,yes,98.000000,60.000000,20.000000
01325000,SACANDAGA RIVER AT STEWARTS BRIDGE NR HADLEY NY,Non-ref,NorthEast,2776.659000,02,43.311460,-73.867346,NY,,yes,102.000000,60.000000,20.000000
01327750,HUDSON RIVER AT FORT EDWARD NY,Non-ref,NorthEast,7334.232000,02,43.269517,-73.595949,NY,,yes,39.000000,32.000000,20.000000
01328000,BOND CREEK AT DUNHAM BASIN NY,Non-ref,NorthEast,37.874700,02,43.306184,-73.548448,NY,,,35.000000,33.000000,0.000000
01329000,"BATTEN KILL AT ARLINGTON, VT",Non-ref,NorthEast,389.386800,02,43.076188,-73.156773,VT,,,55.000000,34.000000,0.000000
01329490,BATTEN KILL BELOW MILL AT BATTENVILLE NY,Non-ref,NorthEast,1026.605000,02,43.108687,-73.421779,NY,,yes,57.000000,30.000000,11.000000
01329500,BATTEN KILL AT BATTENVILLE NY,Non-ref,NorthEast,1046.997000,02,43.101465,-73.431501,NY,,,51.000000,24.000000,5.000000
01330000,GLOWEGEE CREEK AT WEST MILTON NY,Non-ref,NorthEast,63.759600,02,43.030630,-73.927347,NY,,yes,33.000000,32.000000,19.000000
01330500,KAYADEROSSERAS CREEK NR WEST MILTON NY,Non-ref,NorthEast,219.881700,02,43.038408,-73.909291,NY,,,67.000000,45.000000,5.000000
01331095,HUDSON RIVER AT STILLWATER NY,Non-ref,NorthEast,9784.651000,02,42.935632,-73.651784,NY,,yes,32.000000,32.000000,20.000000
01331500,"HOOSIC RIVER AT ADAMS, MA",Non-ref,NorthEast,121.046400,02,42.611194,-73.123992,MA,,yes,78.000000,60.000000,20.000000
01332000,"NORTH BRANCH HOOSIC RIVER AT NORTH ADAMS, MA",Non-ref,NorthEast,105.515100,02,42.702304,-73.093159,MA,,,59.000000,41.000000,1.000000
01332500,"HOOSIC RIVER NEAR WILLIAMSTOWN, MA",Non-ref,NorthEast,328.308300,02,42.700359,-73.158994,MA,,yes,69.000000,60.000000,20.000000
01333000,"GREEN RIVER AT WILLIAMSTOWN, MA",Ref,NorthEast,112.164300,02,42.708969,-73.196773,MA,yes,yes,60.000000,60.000000,20.000000
01333500,LITTLE HOOSIC RIVER AT PETERSBURG NY,Ref,NorthEast,140.916300,02,42.763968,-73.337333,NY,,,45.000000,45.000000,7.000000
01334000,"WALLOOMSAC RIVER NEAR NORTH BENNINGTON, VT",Non-ref,NorthEast,299.563200,02,42.912856,-73.256498,VT,,yes,78.000000,60.000000,20.000000
01334500,HOOSIC RIVER NEAR EAGLE BRIDGE NY,Non-ref,NorthEast,1324.343000,02,42.938689,-73.377056,NY,,yes,97.000000,60.000000,20.000000
01335754,HUDSON R ABOVE LOCK 1 NR WATERFORD NY,Non-ref,NorthEast,11970.200000,02,42.829244,-73.666229,NY,,yes,90.000000,40.000000,20.000000
01336000,MOHAWK RIVER BELOW DELTA DAM NEAR ROME NY,Non-ref,NorthEast,386.424900,02,43.264514,-75.436286,NY,,yes,82.000000,60.000000,20.000000
01343060,WEST CANADA CREEK NEAR WILMURT NY,Ref,NorthEast,609.788700,02,43.366180,-74.957658,NY,,yes,8.000000,8.000000,8.000000
01346000,WEST CANADA CREEK AT KAST BRIDGE NY,Non-ref,NorthEast,1439.444000,02,43.068959,-74.988212,NY,,yes,90.000000,60.000000,20.000000
01347000,MOHAWK RIVER NEAR LITTLE FALLS NY,Non-ref,NorthEast,3450.500000,02,43.014793,-74.779315,NY,,yes,82.000000,60.000000,20.000000
01348000,EAST CANADA CREEK AT EAST CREEK NY,Non-ref,NorthEast,756.468000,02,43.016738,-74.740702,NY,,yes,49.000000,46.000000,6.000000
01349000,OTSQUAGO CREEK AT FORT PLAIN NY,Non-ref,NorthEast,157.662000,02,42.929517,-74.625976,NY,,,40.000000,40.000000,0.000000
01349150,CANAJOHARIE CREEK NR CANAJOHARIE NY,Non-ref,NorthEast,154.824200,02,42.876184,-74.602919,NY,,yes,16.000000,16.000000,16.000000
01349700,EAST KILL NR JEWETT CENTER NY,Non-ref,NorthEast,92.707200,02,42.249253,-74.302645,NY,,yes,12.000000,12.000000,12.000000
01349705,SCHOHARIE CREEK NEAR LEXINGTON NY,Non-ref,NorthEast,249.201000,02,42.237031,-74.340147,NY,,yes,10.000000,10.000000,10.000000
01349711,WEST KILL BELOW HUNTER BROOK NEAR SPRUCETON NY,Ref,NorthEast,12.697200,02,42.185088,-74.276812,NY,,yes,12.000000,12.000000,12.000000
01349810,WEST KILL NEAR WEST KILL NY,Ref,NorthEast,73.656000,02,42.230365,-74.392926,NY,,yes,12.000000,12.000000,12.000000
01349840,BATAVIA KILL NEAR MAPLECREST NY,Ref,NorthEast,5.209200,02,42.289530,-74.115971,NY,,yes,11.000000,11.000000,11.000000
01349950,BATAVIA KILL AT RED FALLS NEAR PRATTSVILLE NY,Non-ref,NorthEast,177.919200,02,42.308418,-74.389869,NY,,yes,12.000000,12.000000,12.000000
01350000,SCHOHARIE CREEK AT PRATTSVILLE NY,Ref,NorthEast,612.514800,02,42.319528,-74.436537,NY,yes,yes,102.000000,60.000000,20.000000
01350035,BEAR KILL NEAR PRATTSVILLE NY,Non-ref,NorthEast,67.713290,02,42.338139,-74.451537,NY,,yes,11.000000,11.000000,11.000000
01350080,MANOR KILL AT WEST CONESVILLE NEAR GILBOA NY,Ref,NorthEast,83.840400,02,42.377026,-74.412924,NY,yes,yes,23.000000,23.000000,20.000000
01350101,SCHOHARIE CREEK AT GILBOA NY,Non-ref,NorthEast,817.120800,02,42.397303,-74.450425,NY,,yes,9.000000,9.000000,0.000000
01350120,PLATTER KILL AT GILBOA NY,Non-ref,NorthEast,29.467800,02,42.406191,-74.447091,NY,,yes,34.000000,34.000000,20.000000
01350140,MINE KILL NEAR NORTH BLENHEIM NY,Ref,NorthEast,43.759800,02,42.428968,-74.472925,NY,yes,yes,34.000000,34.000000,20.000000
01350180,SCHOHARIE CREEK AT NORTH BLENHEIM NY,Non-ref,NorthEast,928.506700,02,42.465911,-74.462091,NY,,yes,38.000000,38.000000,19.000000
01350355,SCHOHARIE CREEK AT BREAKABEEN NY,Non-ref,NorthEast,1153.139000,02,42.537021,-74.410420,NY,,yes,34.000000,34.000000,20.000000
01351500,SCHOHARIE CREEK AT BURTONSVILLE NY,Non-ref,NorthEast,2320.989000,02,42.800075,-74.262907,NY,,yes,70.000000,60.000000,20.000000
01356190,LISHA KILL NORTHWEST OF NISKAYUNA NY,Non-ref,NorthEast,40.634100,02,42.783690,-73.856790,NY,,yes,13.000000,13.000000,13.000000
01357500,MOHAWK RIVER AT COHOES NY,Non-ref,NorthEast,9113.444000,02,42.785356,-73.707619,NY,,yes,91.000000,60.000000,20.000000
01358000,HUDSON RIVER AT GREEN ISLAND NY,Non-ref,NorthEast,20981.080000,02,42.752300,-73.689007,NY,,yes,60.000000,57.000000,17.000000
01359750,MOORDENER KILL AT CASTLETON-ON-HUDSON NY,Non-ref,NorthEast,82.501200,02,42.533970,-73.737065,NY,,,37.000000,37.000000,5.000000
01360640,VALATIE KILL NEAR NASSAU NY,Non-ref,NorthEast,24.922800,02,42.552030,-73.591500,NY,,yes,19.000000,19.000000,19.000000
01361500,CATSKILL CREEK AT OAK HILL NY,Ref,NorthEast,252.742800,02,42.404526,-74.151527,NY,,,48.000000,28.000000,0.000000
013621955,BIRCH CREEK AT BIG INDIAN NY,Non-ref,NorthEast,32.704200,02,42.108979,-74.451818,NY,,yes,11.000000,11.000000,11.000000
01362198,ESOPUS CREEK AT SHANDAKEN NY,Ref,NorthEast,154.137600,02,42.116479,-74.388483,NY,,,25.000000,25.000000,0.000000
01362200,ESOPUS CREEK AT ALLABEN NY,Ref,NorthEast,169.190200,02,42.117034,-74.380149,NY,yes,yes,46.000000,46.000000,20.000000
0136230002,WOODLAND CREEK ABOVE MOUTH AT PHOENICIA NY,Ref,NorthEast,53.185500,02,42.079720,-74.334580,NY,,yes,6.000000,6.000000,6.000000
01362370,STONY CLOVE CREEK BLW OX CLOVE AT CHICHESTER NY,Ref,NorthEast,80.248500,02,42.102028,-74.310889,NY,,yes,12.000000,12.000000,12.000000
01362497,LITTLE BEAVER KILL @ BEECHFORD NR MT TREMPER NY,Ref,NorthEast,43.159500,02,42.019536,-74.266258,NY,,yes,12.000000,12.000000,12.000000
01362500,ESOPUS CREEK AT COLDBROOK NY,Non-ref,NorthEast,493.162200,02,42.014259,-74.270703,NY,,yes,78.000000,60.000000,20.000000
01363382,BUSH KILL BLW MALTBY HOLLOW BK AT WEST SHOKAN NY,Ref,NorthEast,44.287200,02,41.965648,-74.292926,NY,,yes,9.000000,9.000000,9.000000
01364500,ESOPUS CREEK AT MOUNT MARION NY,Non-ref,NorthEast,1084.421000,02,42.037869,-73.972081,NY,,yes,45.000000,39.000000,20.000000
01364959,RONDOUT CR ABOVE RED BROOK AT PEEKAMOOSE NY,Ref,NorthEast,14.039100,02,41.937037,-74.374596,NY,,yes,13.000000,13.000000,13.000000
01365000,RONDOUT CREEK NEAR LOWES CORNERS NY,Ref,NorthEast,99.568800,02,41.866482,-74.487100,NY,yes,yes,72.000000,60.000000,20.000000
01365500,CHESTNUT CREEK AT GRAHAMSVILLE NY,Non-ref,NorthEast,54.447300,02,41.845092,-74.540435,NY,,yes,58.000000,48.000000,11.000000
01366650,SANDBURG CREEK AT ELLENVILLE NY,Non-ref,NorthEast,139.876200,02,41.714260,-74.389043,NY,,,20.000000,20.000000,0.000000
01367500,RONDOUT CREEK AT ROSENDALE NY,Non-ref,NorthEast,940.121300,02,41.843148,-74.085976,NY,,yes,90.000000,59.000000,20.000000
01367800,Papakating Creek at Pellettown NJ,Non-ref,EastHghlnds,42.871500,02,41.162778,-74.675278,NJ,,yes,6.000000,6.000000,6.000000
01368000,WALLKILL RIVER NEAR UNIONVILLE NY,Non-ref,EastHghlnds,364.958100,02,41.260095,-74.549049,NJ,,,44.000000,32.000000,0.000000
01369000,POCHUCK CREEK NEAR PINE ISLAND NY,Non-ref,NorthEast,253.249200,02,41.275650,-74.471547,NY,,,40.000000,28.000000,0.000000
01369500,QUAKER CREEK AT FLORIDA NY,Non-ref,EastHghlnds,25.075800,02,41.339261,-74.362098,NY,,,42.000000,30.000000,0.000000
01371500,WALLKILL RIVER AT GARDINER NY,Non-ref,EastHghlnds,1866.345000,02,41.686205,-74.165146,NY,,yes,85.000000,60.000000,20.000000
01372058,HUDSON RIVER BELOW POUGHKEEPSIE NY,Non-ref,NorthEast,30781.580000,02,41.650927,-73.944582,NY,,yes,0.000000,0.000000,0.000000
01372500,WAPPINGER CREEK NEAR WAPPINGERS FALLS NY,Non-ref,NorthEast,441.813400,02,41.653149,-73.872635,NY,,yes,81.000000,60.000000,20.000000
0137449480,EAST BRANCH CROTON RIVER NEAR PUTNAM LAKE NY,Non-ref,NorthEast,156.092400,02,41.447250,-73.556083,NY,,yes,14.000000,14.000000,14.000000
01374505,EAST BRANCH CROTON RIVER AT BREWSTER NY,Non-ref,NorthEast,218.302200,02,41.394539,-73.607072,NY,,yes,15.000000,15.000000,15.000000
01374531,EAST BRANCH CROTON RIVER NEAR CROTON FALLS NY,Non-ref,NorthEast,231.816600,02,41.373778,-73.638750,NY,,yes,15.000000,15.000000,15.000000
01374559,WEST BRANCH CROTON RIVER AT RICHARDSVILLE NY,Non-ref,NorthEast,28.932300,02,41.470649,-73.760132,NY,,yes,14.000000,14.000000,14.000000
01374581,W BR CROTON RIVER BELOW DAM NEAR KENT CLIFFS NY,Non-ref,NorthEast,57.563100,02,41.449816,-73.736520,NY,,yes,7.000000,7.000000,7.000000
01374598,HORSE POUND BROOK NEAR LAKE CARMEL NY,Non-ref,NorthEast,10.107000,02,41.475861,-73.689472,NY,,yes,13.000000,13.000000,13.000000
0137462010,WEST BRANCH CROTON RIVER NEAR CARMEL NY,Non-ref,NorthEast,110.732400,02,41.411806,-73.693750,NY,,yes,15.000000,15.000000,15.000000
01374654,MIDDLE BRANCH CROTON RIVER NEAR CARMEL NY,Non-ref,NorthEast,35.852400,02,41.432194,-73.651778,NY,,yes,13.000000,13.000000,13.000000
01374701,WEST BRANCH CROTON RIVER NEAR CROTON FALLS NY,Non-ref,NorthEast,207.743400,02,41.357872,-73.668185,NY,,yes,15.000000,15.000000,15.000000
01374781,TITICUS RIVER BELOW JUNE ROAD AT SALEM CENTER NY,Ref,NorthEast,33.529500,02,41.326972,-73.591389,NY,,yes,2.000000,2.000000,2.000000
01374821,TITICUS RIVER AT PURDYS STATION NY,Non-ref,NorthEast,61.808400,02,41.327194,-73.655833,NY,,yes,15.000000,15.000000,15.000000
01374890,CROSS RIVER NEAR CROSS RIVER NY,Non-ref,NorthEast,40.668300,02,41.260222,-73.601861,NY,,yes,13.000000,13.000000,13.000000
01374901,CROSS RIVER AT KATONAH NY,Non-ref,NorthEast,73.618200,02,41.266206,-73.665685,NY,,yes,15.000000,15.000000,15.000000
01374918,STONE HILL RIVER SOUTH OF KATONAH NY,Non-ref,NorthEast,49.200300,02,41.249539,-73.670408,NY,,yes,9.000000,9.000000,9.000000
01374930,MUSCOOT RIVER AT BALDWIN PLACE NY,Non-ref,NorthEast,34.587900,02,41.338139,-73.768694,NY,,yes,14.000000,14.000000,14.000000
01374941,MUSCOOT RIVER BELOW DAM AT AMAWALK NY,Non-ref,NorthEast,50.751900,02,41.287611,-73.753639,NY,,yes,15.000000,15.000000,15.000000
01374987,KISCO RIVER BELOW MOUNT KISCO NY,Non-ref,NorthEast,45.470090,02,41.228750,-73.743611,NY,,yes,12.000000,12.000000,12.000000
0137499350,HUNTER BROOK SOUTH OF YORKTOWN NY,Non-ref,NorthEast,20.385000,02,41.262038,-73.842914,NY,,yes,9.000000,9.000000,9.000000
01375000,CROTON R @ NEW CROTON DAM NR CROTON-ON-HUDSON NY,Non-ref,NorthEast,980.028900,02,41.225094,-73.859303,NY,,yes,76.000000,60.000000,20.000000
01376500,SAW MILL RIVER AT YONKERS NY,Non-ref,NorthEast,62.537780,02,40.937321,-73.889024,NY,,,46.000000,41.000000,2.000000
01376800,HACKENSACK RIVER AT WEST NYACK NY,Non-ref,NorthEast,80.587800,02,41.095652,-73.964027,NY,,yes,50.000000,50.000000,20.000000
01377000,HACKENSACK RIVER AT RIVERVALE NJ,Non-ref,NorthEast,146.506500,02,40.999167,-73.989167,NJ,,yes,68.000000,60.000000,20.000000
01377370,Pascack Brook at Park Ridge NJ,Non-ref,NorthEast,35.242200,02,41.036667,-74.039167,NJ,,yes,5.000000,5.000000,5.000000
01377500,PASCACK BROOK AT WESTWOOD NJ,Non-ref,NorthEast,73.603800,02,40.992778,-74.021111,NJ,,yes,75.000000,60.000000,20.000000
01378500,HACKENSACK RIVER AT NEW MILFORD NJ,Non-ref,NorthEast,300.346200,02,40.948333,-74.026667,NJ,,yes,88.000000,60.000000,20.000000
01379000,PASSAIC RIVER NEAR MILLINGTON NJ,Non-ref,SEPlains,140.429200,02,40.680000,-74.528889,NJ,,yes,89.000000,60.000000,20.000000
01379500,PASSAIC RIVER NEAR CHATHAM NJ,Non-ref,SEPlains,256.049900,02,40.726111,-74.389722,NJ,,yes,80.000000,60.000000,20.000000
01379530,CANOE BROOK NEAR SUMMIT NJ,Non-ref,SEPlains,29.914200,02,40.744444,-74.353611,NJ,,yes,21.000000,21.000000,19.000000
01379773,GREEN POND BROOK AT PICATINNY ARSENAL NJ,Non-ref,NorthEast,19.563300,02,40.959444,-74.539722,NJ,,yes,27.000000,27.000000,20.000000
01379780,GREEN PD BK BL PICATINNY LK AT PICATINNY ARS NJ,Non-ref,NorthEast,23.644800,02,40.948889,-74.557778,NJ,,yes,25.000000,25.000000,20.000000
01379790,GREEN POND BROOK AT WHARTON NJ,Non-ref,NorthEast,32.476500,02,40.917778,-74.583611,NJ,,,23.000000,23.000000,16.000000
01380500,ROCKAWAY RIVER ABOVE RESERVOIR AT BOONTON NJ,Non-ref,NorthEast,304.162900,02,40.902778,-74.409722,NJ,,yes,72.000000,60.000000,20.000000
01381000,ROCKAWAY RIVER BELOW RESERVOIR AT BOONTON NJ,Non-ref,NorthEast,314.353800,02,40.896944,-74.394722,NJ,,yes,101.000000,60.000000,20.000000
01381400,Whippany River near Morristown NJ,Non-ref,NorthEast,36.206100,02,40.812222,-74.511944,NJ,,yes,14.000000,14.000000,14.000000
01381500,WHIPPANY RIVER AT MORRISTOWN NJ,Non-ref,NorthEast,76.874240,02,40.807222,-74.456944,NJ,,yes,88.000000,60.000000,20.000000
01381800,Whippany River near Pine Brook NJ,Non-ref,SEPlains,180.030600,02,40.845000,-74.347222,NJ,,yes,15.000000,15.000000,15.000000
01381900,PASSAIC RIVER AT PINE BROOK NJ,Non-ref,SEPlains,907.803900,02,40.862500,-74.321389,NJ,,yes,30.000000,30.000000,20.000000
01382170,Pequannock River at NJ Route 23 near Oak Ridge NJ,Non-ref,NorthEast,49.240800,02,41.077778,-74.489722,NJ,,yes,1.000000,1.000000,1.000000
01382500,PEQUANNOCK R AT MACOPIN INTAKE DAM NJ,Non-ref,NorthEast,164.146500,02,41.018333,-74.401111,NJ,,yes,84.000000,57.000000,17.000000
01383500,WANAQUE RIVER AT AWOSTING NJ,Non-ref,NorthEast,75.311100,02,41.160278,-74.333611,NJ,,yes,90.000000,60.000000,20.000000
01384000,Wanaque River at Monks NJ,Non-ref,NorthEast,111.066300,02,41.122500,-74.296944,NJ,,,50.000000,35.000000,0.000000
01384500,RINGWOOD CREEK NEAR WANAQUE NJ,Non-ref,NorthEast,43.975800,02,41.127500,-74.265556,NJ,,yes,68.000000,53.000000,20.000000
01386000,WEST BROOK NEAR WANAQUE NJ,Non-ref,NorthEast,30.665700,02,41.073611,-74.311667,NJ,,yes,51.000000,36.000000,7.000000
01387400,RAMAPO RIVER AT RAMAPO NY,Non-ref,NorthEast,231.678900,02,41.140373,-74.168479,NY,,yes,30.000000,30.000000,20.000000
01387420,RAMAPO RIVER AT SUFFERN NY,Non-ref,NorthEast,247.651200,02,41.118429,-74.160145,NY,,yes,30.000000,30.000000,20.000000
01387450,MAHWAH RIVER NEAR SUFFERN NY,Non-ref,NorthEast,32.175900,02,41.141111,-74.116111,NY,,yes,41.000000,41.000000,10.000000
01387500,RAMAPO RIVER NEAR MAHWAH NJ,Non-ref,NorthEast,318.793500,02,41.098056,-74.162778,NJ,,yes,91.000000,60.000000,20.000000
01388000,RAMAPO RIVER AT POMPTON LAKES NJ,Non-ref,NorthEast,420.579000,02,40.991972,-74.279861,NJ,,yes,88.000000,60.000000,20.000000
01388500,POMPTON RIVER AT POMPTON PLAINS NJ,Non-ref,NorthEast,923.089500,02,40.969167,-74.281944,NJ,,yes,70.000000,60.000000,20.000000
01389500,PASSAIC RIVER AT LITTLE FALLS NJ,Non-ref,NorthEast,1981.950000,02,40.884722,-74.226111,NJ,,yes,110.000000,60.000000,20.000000
01389550,Peckman River at Little Falls NJ,Non-ref,SEPlains,20.057400,02,40.871944,-74.222222,NJ,,yes,2.000000,2.000000,2.000000
01389890,Passaic River at Dundee Dam at Clifton NJ,Non-ref,NorthEast,2107.524000,02,40.885833,-74.128333,NJ,,yes,2.000000,2.000000,2.000000
01390450,Saddle River at Upper Saddle River NJ,Non-ref,NorthEast,29.139820,02,41.058611,-74.095556,NJ,,yes,6.000000,6.000000,6.000000
01390500,SADDLE RIVER AT RIDGEWOOD NJ,Non-ref,NorthEast,57.504430,02,40.985000,-74.090556,NJ,,yes,52.000000,52.000000,20.000000
01391000,HOHOKUS BROOK AT HO-HO-KUS NJ,Non-ref,NorthEast,42.292800,02,40.997778,-74.111944,NJ,,yes,42.000000,42.000000,11.000000
01391500,SADDLE RIVER AT LODI NJ,Non-ref,NorthEast,146.462400,02,40.890278,-74.080556,NJ,,yes,86.000000,60.000000,20.000000
01392210,THIRD RIVER AT PASSAIC NJ,Non-ref,SEPlains,32.439600,02,40.829722,-74.141944,NJ,,,20.000000,20.000000,8.000000
01393450,ELIZABETH R AT URSINO LAKE AT ELIZABETH NJ,Non-ref,SEPlains,45.538200,02,40.675000,-74.221944,NJ,,yes,88.000000,60.000000,20.000000
01393500,ELIZABETH RIVER AT ELIZABETH NJ,Non-ref,SEPlains,49.400100,02,40.668333,-74.219444,NJ,,,51.000000,23.000000,0.000000
01394500,RAHWAY RIVER NEAR SPRINGFIELD NJ,Non-ref,SEPlains,67.098790,02,40.687500,-74.311667,NJ,,yes,71.000000,60.000000,20.000000
01395000,RAHWAY RIVER AT RAHWAY NJ,Non-ref,SEPlains,107.888400,02,40.618889,-74.283333,NJ,,yes,88.000000,60.000000,20.000000
01396000,ROBINSONS BRANCH AT RAHWAY NJ,Non-ref,SEPlains,52.544700,02,40.605833,-74.299722,NJ,,,57.000000,47.000000,7.000000
01396091,South Br Raritan River at Rt 46 at Budd Lake NJ,Non-ref,NorthEast,12.975300,02,40.859444,-74.760833,NJ,,yes,1.000000,1.000000,1.000000
01396190,South Branch Raritan River at Four Bridges NJ,Non-ref,NorthEast,79.995600,02,40.806111,-74.740556,NJ,,yes,10.000000,10.000000,10.000000
01396500,SOUTH BRANCH RARITAN RIVER NEAR HIGH BRIDGE NJ,Non-ref,NorthEast,162.524700,02,40.677778,-74.879167,NJ,,yes,91.000000,60.000000,20.000000
01396580,SPRUCE RUN AT GLEN GARDNER NJ,Non-ref,NorthEast,31.862700,02,40.693333,-74.939722,NJ,,,23.000000,23.000000,13.000000
01396582,Spruce Run at Main Street at Glen Gardner NJ,Non-ref,NorthEast,32.086800,02,40.691389,-74.936944,NJ,,yes,27.000000,27.000000,17.000000
01396660,MULHOCKAWAY CREEK AT VAN SYCKEL NJ,Non-ref,SEPlains,30.440610,02,40.647500,-74.968889,NJ,,yes,32.000000,32.000000,20.000000
01396800,SPRUCE RUN AT CLINTON NJ,Non-ref,NorthEast,107.843400,02,40.640000,-74.915556,NJ,,yes,49.000000,49.000000,20.000000
01397000,SOUTH BRANCH RARITAN RIVER AT STANTON NJ,Non-ref,NorthEast,388.627200,02,40.572500,-74.867778,NJ,,yes,93.000000,60.000000,20.000000
01398000,NESHANIC RIVER AT REAVILLE NJ,Non-ref,SEPlains,65.978710,02,40.473333,-74.827778,NJ,,yes,79.000000,60.000000,20.000000
01398500,NORTH BRANCH RARITAN RIVER NEAR FAR HILLS NJ,Non-ref,NorthEast,68.921100,02,40.708333,-74.636111,NJ,,yes,86.000000,58.000000,20.000000
01399100,Middle Brook at Burnt Mills NJ,Non-ref,SEPlains,16.951500,02,40.649444,-74.681667,NJ,,yes,3.000000,3.000000,3.000000
01399500,LAMINGTON (BLACK) RIVER NEAR POTTERSVILLE NJ,Non-ref,NorthEast,83.488740,02,40.727500,-74.730278,NJ,,yes,88.000000,60.000000,20.000000
01399510,UPPER COLD BROOK NEAR POTTERSVILLE NJ,Non-ref,NorthEast,5.689800,02,40.721111,-74.752222,NJ,,,24.000000,24.000000,7.000000
01399670,SB ROCKAWAY CREEK AT WHITEHOUSE STATION NJ,Non-ref,SEPlains,30.947400,02,40.619444,-74.773611,NJ,,yes,32.000000,32.000000,20.000000
01400000,NORTH BRANCH RARITAN RIVER NEAR RARITAN NJ,Non-ref,NorthEast,485.095600,02,40.570556,-74.679167,NJ,,yes,86.000000,60.000000,20.000000
01400500,RARITAN RIVER AT MANVILLE NJ,Non-ref,SEPlains,1271.465000,02,40.555000,-74.583611,NJ,,yes,91.000000,60.000000,20.000000
01401000,STONY BROOK AT PRINCETON NJ,Non-ref,SEPlains,115.182700,02,40.333056,-74.681944,NJ,,yes,56.000000,56.000000,20.000000
01401650,PIKE RUN AT BELLE MEAD NJ,Non-ref,SEPlains,13.285800,02,40.468056,-74.648889,NJ,,yes,29.000000,29.000000,20.000000
01402000,MILLSTONE RIVER AT BLACKWELLS MILLS NJ,Non-ref,SEPlains,670.379400,02,40.475000,-74.575833,NJ,,yes,88.000000,60.000000,20.000000
01402600,ROYCE BROOK TRIBUTARY NEAR BELLE MEAD NJ,Non-ref,SEPlains,1.599300,02,40.499167,-74.651111,NJ,,,23.000000,23.000000,6.000000
01403060,RARITAN RIVER BELOW CALCO DAM AT BOUND BROOK NJ,Non-ref,SEPlains,2025.166000,02,40.551111,-74.548333,NJ,,yes,70.000000,60.000000,20.000000
01403150,WEST BRANCH MIDDLE BROOK NEAR MARTINSVILLE NJ,Non-ref,SEPlains,5.040900,02,40.612222,-74.590833,NJ,,yes,30.000000,30.000000,20.000000
01403400,GREEN BROOK AT SEELEY MILLS NJ,Non-ref,SEPlains,16.303500,02,40.666111,-74.403889,NJ,,yes,30.000000,30.000000,20.000000
01403500,GREEN BROOK AT PLAINFIELD NJ,Non-ref,SEPlains,31.478400,02,40.615000,-74.431667,NJ,,,46.000000,35.000000,0.000000
01403535,EB STONY BROOK AT BEST LAKE AT WATCHUNG NJ,Non-ref,SEPlains,3.708000,02,40.640278,-74.447500,NJ,,,20.000000,20.000000,11.000000
01403540,STONY BROOK AT WATCHUNG NJ,Non-ref,SEPlains,14.121900,02,40.636667,-74.451389,NJ,,yes,35.000000,35.000000,20.000000
01403900,Bound Brook at Middlesex NJ,Non-ref,SEPlains,125.633500,02,40.585000,-74.507778,NJ,,yes,12.000000,12.000000,7.000000
01405000,LAWRENCE BROOK AT FARRINGTON DAM NJ,Non-ref,SEPlains,84.260700,02,40.450000,-74.451111,NJ,,,62.000000,40.000000,0.000000
01405030,Lawrence Brook at Westons Mills NJ,Non-ref,SEPlains,111.996900,02,40.483056,-74.412778,NJ,,yes,19.000000,19.000000,19.000000
01405400,MANALAPAN BROOK AT SPOTSWOOD NJ,Non-ref,SECstPlain,100.784700,02,40.389444,-74.390556,NJ,,yes,52.000000,52.000000,20.000000
01405500,SOUTH RIVER AT OLD BRIDGE NJ,Non-ref,SECstPlain,245.612700,02,40.406111,-74.368611,NJ,,,49.000000,39.000000,0.000000
01406050,Deep Run at Old Bridge NJ,Non-ref,SECstPlain,40.532400,02,40.415000,-74.348889,NJ,,yes,9.000000,9.000000,9.000000
01407290,Big Brook near Marlboro NJ,Non-ref,SECstPlain,17.001000,02,40.319722,-74.214167,NJ,,yes,6.000000,6.000000,6.000000
01407500,SWIMMING RIVER NEAR RED BANK NJ,Non-ref,SECstPlain,127.494000,02,40.319722,-74.115556,NJ,,yes,87.000000,60.000000,20.000000
01407705,SHARK RIVER NEAR NEPTUNE CITY NJ,Non-ref,SECstPlain,24.995700,02,40.198611,-74.070000,NJ,,yes,43.000000,43.000000,20.000000
01407760,JUMPING BROOK NEAR NEPTUNE CITY NJ,Non-ref,SECstPlain,16.254000,02,40.203333,-74.065833,NJ,,yes,43.000000,43.000000,20.000000
01408000,MANASQUAN RIVER AT SQUANKUM NJ,Non-ref,SECstPlain,114.133800,02,40.161389,-74.154722,NJ,,yes,78.000000,60.000000,20.000000
01408029,Manasquan River near Allenwood NJ,Non-ref,SECstPlain,164.319300,02,40.146667,-74.122222,NJ,,yes,19.000000,19.000000,19.000000
01408120,NORTH BRANCH METEDECONK RIVER NEAR LAKEWOOD NJ,Non-ref,SECstPlain,91.287900,02,40.091667,-74.152500,NJ,,yes,37.000000,37.000000,20.000000
01408500,TOMS RIVER NEAR TOMS RIVER NJ,Non-ref,SECstPlain,318.795300,02,39.986389,-74.223333,NJ,,yes,81.000000,60.000000,20.000000
01409000,Cedar Creek at Lanoka Harbor NJ,Non-ref,SECstPlain,137.698200,02,39.867500,-74.169167,NJ,,yes,33.000000,16.000000,6.000000
01409280,Westecunk Creek at Stafford Forge NJ,Non-ref,SECstPlain,42.482700,02,39.666667,-74.320278,NJ,,yes,21.000000,21.000000,6.000000
01409400,MULLICA RIVER NEAR BATSTO NJ,Non-ref,SECstPlain,116.244000,02,39.674444,-74.665000,NJ,,yes,52.000000,52.000000,20.000000
01409500,BATSTO RIVER AT BATSTO NJ,Non-ref,SECstPlain,177.494400,02,39.641667,-74.650278,NJ,,,77.000000,56.000000,16.000000
01409810,WEST BRANCH WADING RIVER NEAR JENKINS NJ,Ref,SECstPlain,218.671200,02,39.688056,-74.548056,NJ,,yes,25.000000,25.000000,10.000000
01410000,OSWEGO RIVER AT HARRISVILLE NJ,Non-ref,SECstPlain,185.278500,02,39.663333,-74.523611,NJ,,yes,79.000000,60.000000,20.000000
01410150,EAST BRANCH BASS RIVER NEAR NEW GRETNA NJ,Non-ref,SECstPlain,35.266500,02,39.623056,-74.441389,NJ,,yes,31.000000,31.000000,20.000000
01410500,ABSECON CREEK AT ABSECON NJ,Non-ref,SECstPlain,48.037500,02,39.429167,-74.520833,NJ,,yes,39.000000,36.000000,1.000000
01411000,GREAT EGG HARBOR RIVER AT FOLSOM NJ,Non-ref,SECstPlain,145.183700,02,39.594722,-74.851667,NJ,,yes,84.000000,60.000000,20.000000
01411300,TUCKAHOE RIVER AT HEAD OF RIVER NJ,Ref,SECstPlain,79.317900,02,39.306944,-74.820556,NJ,yes,yes,39.000000,39.000000,20.000000
01411456,Little Ease Run near Clayton NJ,Non-ref,SECstPlain,24.246900,02,39.658889,-75.067500,NJ,,yes,21.000000,21.000000,20.000000
01411500,MAURICE RIVER AT NORMA NJ,Non-ref,SECstPlain,270.173500,02,39.495556,-75.076944,NJ,,yes,77.000000,60.000000,20.000000
01412800,Cohansey River at Seeley NJ,Non-ref,SECstPlain,81.958590,02,39.472500,-75.255556,NJ,,yes,17.000000,17.000000,6.000000
01413088,EAST BRANCH DELAWARE RIVER AT ROXBURY NY,Non-ref,NorthEast,47.403900,02,42.291670,-74.559720,NY,,yes,9.000000,9.000000,9.000000
01413398,BUSH KILL NEAR ARKVILLE NY,Non-ref,NorthEast,121.003200,02,42.150922,-74.601266,NY,,yes,12.000000,12.000000,12.000000
01413408,DRY BROOK AT ARKVILLE,Ref,NorthEast,212.772600,02,42.146755,-74.623210,NY,,yes,12.000000,12.000000,12.000000
01413500,EAST BR DELAWARE R AT MARGARETVILLE NY,Ref,NorthEast,424.102500,02,42.144810,-74.653489,NY,yes,yes,72.000000,60.000000,20.000000
01414000,PLATTE KILL AT DUNRAVEN NY,Ref,NorthEast,90.422100,02,42.133143,-74.695434,NY,,yes,33.000000,25.000000,12.000000
01414500,MILL BROOK NEAR DUNRAVEN NY,Ref,NorthEast,64.451700,02,42.106199,-74.730435,NY,yes,yes,72.000000,60.000000,20.000000
01415000,TREMPER KILL NEAR ANDES NY,Ref,NorthEast,85.628700,02,42.120087,-74.818493,NY,yes,yes,72.000000,60.000000,20.000000
01415460,TERRY CLOVE KILL NEAR DE LANCEY NY,Ref,NorthEast,20.529000,02,42.147111,-74.905222,NY,,yes,0.000000,0.000000,0.000000
01417000,EAST BRANCH DELAWARE RIVER AT DOWNSVILLE NY,Non-ref,NorthEast,960.933700,02,42.075087,-74.976275,NY,,yes,68.000000,60.000000,20.000000
01417500,EAST BR DELAWARE RIVER AT HARVARD NY,Non-ref,NorthEast,1183.973000,02,42.024809,-75.119890,NY,,yes,63.000000,48.000000,20.000000
01418500,BEAVER KILL AT CRAIGIE CLAIR NY,Ref,NorthEast,213.007500,02,41.963144,-74.866828,NY,,,33.000000,21.000000,0.000000
01419500,WILLOWEMOC CREEK NR LIVINGSTON MANOR NY,Ref,NorthEast,162.206100,02,41.903422,-74.812661,NY,,,33.000000,21.000000,0.000000
01420000,LITTLE BEAVER KILL NR LIVINGSTON MANOR NY,Non-ref,NorthEast,52.461000,02,41.872867,-74.797105,NY,,,57.000000,32.000000,0.000000
01420500,BEAVER KILL AT COOKS FALLS NY,Non-ref,NorthEast,627.047100,02,41.946477,-74.979609,NY,,yes,95.000000,60.000000,20.000000
01420980,E BR DELAWARE RIVER ABV READ CR AT FISHS EDDY NY,Non-ref,NorthEast,1982.696000,02,41.976198,-75.170725,NY,,,91.000000,55.000000,15.000000
01421000,EAST BR DELAWARE R AT FISHS EDDY NY,Non-ref,NorthEast,2029.478000,02,41.973143,-75.174058,NY,,yes,96.000000,60.000000,20.000000
01421610,WEST BRANCH DELAWARE RIVER AT HOBART NY,Non-ref,NorthEast,38.847600,02,42.371470,-74.669042,NY,,yes,9.000000,9.000000,9.000000
01421618,TOWN BROOK SOUTHEAST OF HOBART NY,Ref,NorthEast,37.326600,02,42.361193,-74.662098,NY,,yes,12.000000,12.000000,12.000000
01421900,W BR DELAWARE RIVER UPSTREAM FROM DELHI NY,Non-ref,NorthEast,347.680800,02,42.280362,-74.907105,NY,,yes,45.000000,33.000000,12.000000
01422000,WEST BRANCH DELAWARE RIVER AT DELHI NY,Non-ref,NorthEast,368.654400,02,42.271111,-74.918056,NY,,,33.000000,21.000000,0.000000
01422389,COULTER BROOK NEAR BOVINA CENTER NY,Ref,NorthEast,3.200400,02,42.238700,-74.735990,NY,,yes,11.000000,11.000000,11.000000
01422500,LITTLE DELAWARE RIVER NEAR DELHI NY,Ref,NorthEast,128.930400,02,42.252308,-74.901550,NY,,yes,45.000000,33.000000,12.000000
01422738,WOLF CREEK AT MUNDALE NY,Ref,NorthEast,1.665900,02,42.259529,-75.041832,NY,,yes,10.000000,10.000000,10.000000
01422747,EAST BROOK EAST OF WALTON NY,Ref,NorthEast,63.901800,02,42.172863,-75.121279,NY,,yes,11.000000,11.000000,11.000000
01423000,WEST BRANCH DELAWARE RIVER AT WALTON NY,Ref,NorthEast,859.680900,02,42.166196,-75.139891,NY,yes,yes,59.000000,59.000000,20.000000
0142400103,TROUT CREEK NEAR TROUT CREEK NY,Ref,NorthEast,52.845300,02,42.173695,-75.279340,NY,,yes,26.000000,26.000000,12.000000
01425000,WEST BR DELAWARE RIVER AT STILESVILLE NY,Non-ref,NorthEast,1180.565000,02,42.074806,-75.396009,NY,,yes,57.000000,57.000000,20.000000
01426000,OQUAGA CREEK AT DEPOSIT NY,Non-ref,NorthEast,174.939300,02,42.058695,-75.427955,NY,,yes,33.000000,24.000000,0.000000
01426500,WEST BRANCH DELAWARE RIVER AT HALE EDDY NY,Non-ref,NorthEast,1539.334000,02,42.003140,-75.383508,NY,,yes,96.000000,60.000000,20.000000
01427207,DELAWARE RIVER AT LORDVILLE NY,Non-ref,NorthEast,4117.510000,02,41.867310,-75.213783,PA,,yes,3.000000,3.000000,3.000000
01427500,CALLICOON CREEK AT CALLICOON NY,Non-ref,NorthEast,286.610300,02,41.760922,-75.048223,NY,,,42.000000,33.000000,0.000000
01427510,DELAWARE RIVER AT CALLICOON NY,Non-ref,NorthEast,4724.998000,02,41.756755,-75.057390,PA,,yes,34.000000,34.000000,20.000000
01428000,TENMILE RIVER AT TUSTEN NY,Non-ref,NorthEast,118.683900,02,41.564256,-75.015168,NY,,,27.000000,24.000000,0.000000
01428500,DELAWARE R ABOVE LACKAWAXEN R NR BARRYVILLE NY,Non-ref,NorthEast,5242.786000,02,41.508978,-74.985723,PA,,yes,69.000000,60.000000,20.000000
01428750,"West Branch Lackawaxen River near Aldenville, PA",Non-ref,NorthEast,107.902800,02,41.674530,-75.376013,PA,,yes,23.000000,23.000000,20.000000
01429000,"West Branch Lackawaxen River at Prompton, PA",Non-ref,NorthEast,151.376400,02,41.587309,-75.326845,PA,,yes,65.000000,60.000000,20.000000
01429500,"Dyberry Creek near Honesdale, PA",Non-ref,NorthEast,167.224500,02,41.607310,-75.267120,PA,,yes,66.000000,60.000000,20.000000
01430000,"Lackawaxen River near Honesdale, PA",Non-ref,NorthEast,425.024100,02,41.562033,-75.247953,PA,,yes,45.000000,44.000000,20.000000
01431500,"Lackawaxen River at Hawley, PA",Non-ref,NorthEast,748.656900,02,41.476200,-75.172119,PA,,yes,80.000000,60.000000,20.000000
01432000,"Wallenpaupack Creek at Wilsonville, PA",Non-ref,NorthEast,592.626600,02,41.459256,-75.185175,PA,,,96.000000,56.000000,16.000000
01432110,"Lackawaxen River at Rowland, PA",Non-ref,NorthEast,1528.151000,02,41.475923,-75.036281,PA,,yes,2.000000,2.000000,2.000000
01432900,MONGAUP RIVER AT MONGAUP VALLEY NY,Non-ref,NorthEast,198.664200,02,41.668145,-74.780441,NY,,yes,7.000000,7.000000,7.000000
01433500,MONGAUP RIVER NEAR MONGAUP NY,Non-ref,NorthEast,523.679400,02,41.461481,-74.758775,NY,,yes,55.000000,45.000000,5.000000
01434000,DELAWARE RIVER AT PORT JERVIS NY,Non-ref,NorthEast,7967.644000,02,41.370649,-74.697385,PA,,yes,105.000000,60.000000,20.000000
0143400680,E BR NEVERSINK R NORTHEAST OF DENNING NY,Ref,NorthEast,23.431500,02,41.967037,-74.447931,NY,,yes,19.000000,19.000000,19.000000
01434017,EAST BR NEVERSINK RIVER NR CLARYVILLE NY,Ref,NorthEast,59.548500,02,41.925370,-74.540156,NY,,yes,18.000000,18.000000,18.000000
01434021,W BR NEVERSINK R AT WINNISOOK L NR FROST VALLEY NY,Ref,NorthEast,2.179800,02,42.011203,-74.414318,NY,,yes,18.000000,18.000000,18.000000
01434025,BISCUIT BK ABOVE PIGEON BK AT FROST VALLEY NY,Ref,NorthEast,9.700200,02,41.995370,-74.500987,NY,yes,yes,26.000000,26.000000,20.000000
01434498,WEST BRANCH NEVERSINK R AT CLARYVILLE,Non-ref,NorthEast,87.850800,02,41.920369,-74.574601,NY,,yes,18.000000,18.000000,18.000000
01435000,NEVERSINK RIVER NEAR CLARYVILLE NY,Ref,NorthEast,172.458000,02,41.890092,-74.589879,NY,yes,yes,68.000000,58.000000,20.000000
01436000,NEVERSINK RIVER AT NEVERSINK NY,Non-ref,NorthEast,240.691500,02,41.820091,-74.635437,NY,,yes,68.000000,60.000000,20.000000
01436500,NEVERSINK RIVER AT WOODBOURNE NY,Non-ref,NorthEast,292.734900,02,41.756758,-74.597382,NY,,,51.000000,40.000000,4.000000
01436690,NEVERSINK RIVER AT BRIDGEVILLE NY,Non-ref,NorthEast,443.034900,02,41.638064,-74.616883,NY,,yes,17.000000,17.000000,17.000000
01437000,NEVERSINK RIVER AT OAKLAND VALLEY NY,Non-ref,NorthEast,576.876600,02,41.495926,-74.646273,NY,,,45.000000,24.000000,0.000000
01437500,NEVERSINK RIVER AT GODEFFROY NY,Non-ref,NorthEast,793.959300,02,41.441204,-74.601828,NY,,yes,72.000000,60.000000,20.000000
01438500,DELAWARE RIVER AT MONTAGUE NJ,Non-ref,NorthEast,9016.394000,02,41.309167,-74.795278,NJ,,yes,70.000000,60.000000,20.000000
01439500,"Bush Kill at Shoemakers, PA",Ref,NorthEast,305.877600,02,41.088151,-75.037675,PA,yes,yes,101.000000,60.000000,20.000000
01439800,Big Flat Brook near Hainesville NJ,Ref,NorthEast,62.046900,02,41.206944,-74.803611,NJ,,yes,1.000000,1.000000,1.000000
01440000,FLAT BROOK NEAR FLATBROOKVILLE NJ,Ref,NorthEast,167.720400,02,41.106667,-74.952222,NJ,yes,yes,86.000000,60.000000,20.000000
01440200,DELAWARE RIVER NEAR DELAWARE WATER GAP PA,Non-ref,NorthEast,9930.110000,02,41.013333,-75.086111,NJ,,,31.000000,31.000000,6.000000
01440400,"Brodhead Creek near Analomink, PA",Ref,NorthEast,175.208400,02,41.084815,-75.214625,PA,yes,yes,52.000000,52.000000,20.000000
01440485,"Swiftwater Creek at Swiftwater, PA",Non-ref,NorthEast,17.779500,02,41.093979,-75.322128,PA,,yes,8.000000,8.000000,8.000000
01441495,"Pocono Creek ab Wigwam Run near Stroudsburg, PA",Non-ref,NorthEast,120.242700,02,40.990927,-75.255182,PA,,yes,7.000000,7.000000,7.000000
01442500,"Brodhead Creek at Minisink Hills, PA",Non-ref,NorthEast,677.560500,02,40.998706,-75.142679,PA,,yes,59.000000,59.000000,20.000000
01443280,East Branch Paulins Kill near Lafayette NJ,Non-ref,EastHghlnds,33.900300,02,41.076389,-74.695278,NJ,,yes,17.000000,17.000000,17.000000
01443500,PAULINS KILL AT BLAIRSTOWN NJ,Non-ref,EastHghlnds,326.428200,02,40.980833,-74.953333,NJ,,yes,87.000000,59.000000,20.000000
01443900,YARDS CREEK NEAR BLAIRSTOWN NJ,Non-ref,EastHghlnds,13.590900,02,40.980556,-75.039167,NJ,,yes,43.000000,43.000000,20.000000
01445000,Pequest River at Huntsville NJ,Non-ref,EastHghlnds,74.886310,02,40.980833,-74.776389,NJ,,yes,30.000000,20.000000,7.000000
01445500,PEQUEST RIVER AT PEQUEST NJ,Non-ref,EastHghlnds,269.534100,02,40.830556,-74.977778,NJ,,yes,88.000000,60.000000,20.000000
01446000,Beaver Brook near Belvidere NJ,Non-ref,EastHghlnds,95.511600,02,40.843333,-75.046389,NJ,,yes,45.000000,18.000000,6.000000
01446500,DELAWARE RIVER AT BELVIDERE NJ,Non-ref,NorthEast,11769.170000,02,40.826389,-75.082500,NJ,,yes,87.000000,60.000000,20.000000
01446775,"Bushkill Creek ab Rt 33 bridge at Tatamy, PA",Non-ref,EastHghlnds,81.276310,02,40.748986,-75.265178,PA,,yes,3.000000,3.000000,3.000000
01446776,"Bushkill Creek bl SR2017 bridge at Tatamy, PA",Non-ref,EastHghlnds,81.494090,02,40.748708,-75.261012,PA,,yes,3.000000,3.000000,3.000000
01447500,"Lehigh River at Stoddartsville, PA",Non-ref,NorthEast,240.190200,02,41.130363,-75.625467,PA,,yes,66.000000,60.000000,20.000000
01447680,"Tunkhannock Creek near Long Pond, PA",Non-ref,NorthEast,51.733800,02,41.065365,-75.520187,PA,,yes,44.000000,44.000000,20.000000
01447720,"Tobyhanna Creek near Blakeslee, PA",Non-ref,NorthEast,308.126700,02,41.084808,-75.605467,PA,,yes,48.000000,48.000000,20.000000
01447800,Lehigh R bl Francis E Walter Res nr White Haven PA,Non-ref,NorthEast,752.669100,02,41.104806,-75.732136,PA,,yes,52.000000,52.000000,20.000000
01448500,"Dilldown Creek near Long Pond, PA",Ref,NorthEast,6.311700,02,41.035643,-75.543243,PA,,,48.000000,47.000000,7.000000
01449000,"Lehigh River at Lehighton, PA",Non-ref,NorthEast,1521.781000,02,40.829259,-75.705189,PA,,yes,27.000000,27.000000,20.000000
01449360,"Pohopoco Creek at Kresgeville, PA",Non-ref,NorthEast,129.485700,02,40.897592,-75.502408,PA,,yes,43.000000,43.000000,20.000000
01449500,"Wild Creek at Hatchery, PA",Non-ref,NorthEast,42.894000,02,40.922868,-75.558520,PA,,,39.000000,30.000000,0.000000
01449800,"Pohopoco Cr bl Beltzville Dam nr Parryville, PA",Non-ref,NorthEast,249.486300,02,40.845648,-75.645744,PA,,yes,42.000000,42.000000,20.000000
01450000,"Pohopoco Creek near Parryville, PA",Non-ref,NorthEast,283.986900,02,40.831759,-75.681022,PA,,,30.000000,21.000000,0.000000
01450500,"Aquashicola Creek at Palmerton, PA",Non-ref,EastHghlnds,198.114300,02,40.806205,-75.597964,PA,,yes,70.000000,60.000000,20.000000
01451000,"Lehigh River at Walnutport, PA",Non-ref,NorthEast,2297.016000,02,40.757039,-75.602964,PA,,yes,63.000000,60.000000,20.000000
01451500,"Little Lehigh Creek near Allentown, PA",Non-ref,EastHghlnds,212.056200,02,40.582320,-75.482961,PA,,yes,64.000000,60.000000,20.000000
01451650,Little Lehigh Creek at Tenth St. Br. at Allentown,Non-ref,EastHghlnds,253.856700,02,40.596486,-75.474072,PA,,yes,23.000000,23.000000,20.000000
01451800,"Jordan Creek near Schnecksville, PA",Ref,EastHghlnds,135.844800,02,40.661762,-75.626854,PA,yes,yes,43.000000,43.000000,20.000000
01452000,"Jordan Creek at Allentown, PA",Non-ref,EastHghlnds,196.562700,02,40.623153,-75.482405,PA,,yes,65.000000,60.000000,20.000000
01452500,"Monocacy Creek at Bethlehem, PA",Non-ref,EastHghlnds,112.041000,02,40.641209,-75.379347,PA,,yes,61.000000,60.000000,20.000000
01453000,"Lehigh River at Bethlehem, PA",Non-ref,EastHghlnds,3306.332000,02,40.615376,-75.378791,PA,,yes,102.000000,60.000000,20.000000
01454700,"Lehigh River at Glendon, PA",Non-ref,EastHghlnds,3518.950000,02,40.669266,-75.236288,PA,,,39.000000,39.000000,16.000000
01455500,Musconetcong River at outlet of Lake Hopatcong NJ,Non-ref,NorthEast,65.057400,02,40.917222,-74.665556,NJ,,yes,54.000000,33.000000,7.000000
01456000,MUSCONETCONG R NR HACKETTSTOWN NJ,Non-ref,NorthEast,179.256600,02,40.888333,-74.796944,NJ,,,52.000000,24.000000,0.000000
01457000,MUSCONETCONG RIVER NEAR BLOOMSBURY NJ,Non-ref,NorthEast,366.775200,02,40.672222,-75.060833,NJ,,yes,91.000000,60.000000,20.000000
01457500,DELAWARE RIVER AT RIEGELSVILLE NJ,Non-ref,NorthEast,16398.760000,02,40.594722,-75.190000,NJ,,,65.000000,22.000000,0.000000
01459500,"Tohickon Creek near Pipersville, PA",Non-ref,SEPlains,254.230200,02,40.433715,-75.116561,PA,,yes,74.000000,60.000000,20.000000
01460880,Lockatong Creek at Raven Rock NJ,Ref,SEPlains,59.502600,02,40.416111,-75.017778,NJ,,yes,3.000000,3.000000,3.000000
01461300,Wickecheoke Creek at Stockton NJ,Ref,SEPlains,69.606000,02,40.411389,-74.986667,NJ,,yes,3.000000,3.000000,3.000000
01463500,DELAWARE RIVER AT TRENTON NJ,Non-ref,NorthEast,17579.750000,02,40.221667,-74.778056,NJ,,yes,97.000000,60.000000,20.000000
01463620,Assunpink Creek near Clarksville NJ,Non-ref,SECstPlain,88.237800,02,40.269722,-74.671944,NJ,,yes,21.000000,21.000000,12.000000
01464000,ASSUNPINK CREEK AT TRENTON NJ,Non-ref,SECstPlain,233.045100,02,40.224167,-74.749167,NJ,,yes,86.000000,60.000000,20.000000
01464500,CROSSWICKS CREEK AT EXTONVILLE NJ,Non-ref,SECstPlain,200.845800,02,40.137222,-74.600000,NJ,,yes,68.000000,59.000000,20.000000
01464645,"NB Neshaminy Cr bl Lake Galena nr New Britain, PA",Non-ref,SEPlains,42.417000,02,40.312328,-75.206563,PA,,yes,23.000000,23.000000,20.000000
01464720,"NB Neshaminy Creek at Chalfont, PA",Non-ref,SEPlains,82.316700,02,40.288162,-75.203785,PA,,yes,18.000000,18.000000,18.000000
01464750,"Neshaminy Creek near Rushland, PA",Non-ref,SEPlains,235.836000,02,40.260385,-75.034892,PA,,yes,13.000000,13.000000,11.000000
01464907,Little Neshaminy C at Valley Road nr Neshaminy PA,Non-ref,SEPlains,72.298090,02,40.229275,-75.119616,PA,,yes,10.000000,10.000000,10.000000
01465500,"Neshaminy Creek near Langhorne, PA",Non-ref,SEPlains,541.391400,02,40.173998,-74.956834,PA,,yes,75.000000,60.000000,20.000000
01465798,"Poquessing Creek at Grant Ave. at Philadelphia, PA",Non-ref,SEPlains,54.490500,02,40.057056,-74.985169,PA,,yes,44.000000,44.000000,20.000000
01465850,SOUTH BRANCH RANCOCAS CREEK AT VINCENTOWN NJ,Non-ref,SECstPlain,170.765100,02,39.940000,-74.763056,NJ,,yes,22.000000,22.000000,8.000000
01465880,Southwest Branch Rancocas Creek at Medford NJ,Non-ref,SECstPlain,123.262200,02,39.895278,-74.823611,NJ,,yes,3.000000,3.000000,3.000000
01466500,MCDONALDS BRANCH IN LEBANON STATE FOREST NJ,Ref,SECstPlain,5.376711,02,39.885000,-74.505278,NJ,yes,yes,56.000000,56.000000,20.000000
01466900,Greenwood Branch at New Lisbon NJ,Non-ref,SECstPlain,193.025700,02,39.956110,-74.627780,NJ,,yes,11.000000,11.000000,11.000000
01467000,NORTH BRANCH RANCOCAS CREEK AT PEMBERTON NJ,Non-ref,SECstPlain,323.554500,02,39.970000,-74.684444,NJ,,yes,88.000000,60.000000,20.000000
01467042,"Pennypack Creek at Pine Road, at Philadelphia, PA",Non-ref,SEPlains,98.235900,02,40.089833,-75.069061,PA,,yes,19.000000,19.000000,2.000000
01467048,"Pennypack Cr at Lower Rhawn St Bdg, Phila., PA",Non-ref,SEPlains,129.452400,02,40.050111,-75.032671,PA,,yes,44.000000,44.000000,20.000000
01467081,SOUTH BRANCH PENNSAUKEN CREEK AT CHERRY HILL NJ,Non-ref,SECstPlain,23.132700,02,39.941667,-75.001111,NJ,,yes,41.000000,41.000000,20.000000
01467086,"Tacony Creek at County Line, Philadelphia, PA",Non-ref,SEPlains,41.818500,02,40.046500,-75.110730,PA,,yes,26.000000,26.000000,4.000000
01467087,"Frankford Creek at Castor Ave, Philadelphia, PA",Non-ref,SEPlains,76.970700,02,40.015945,-75.096841,PA,,yes,27.000000,27.000000,20.000000
01467150,COOPER RIVER AT HADDONFIELD NJ,Non-ref,SECstPlain,46.983040,02,39.903056,-75.021389,NJ,,yes,46.000000,46.000000,20.000000
01467471,"Schuylkill River ab Mill Creek at Port Carbon, PA",Non-ref,EastHghlnds,70.980300,02,40.693750,-76.164770,PA,,yes,1.000000,1.000000,1.000000
01467492,"Mill Cr ab Schuylkill River at Port Carbon, PA",Non-ref,EastHghlnds,65.109600,02,40.693820,-76.164960,PA,,yes,1.000000,1.000000,1.000000
01467500,"Schuylkill River at Pottsville, PA",Non-ref,EastHghlnds,139.036500,02,40.683701,-76.186332,PA,,,26.000000,20.000000,0.000000
01467688,WB Schuylkill River ab Pine Knot Disch at Duncott,Non-ref,EastHghlnds,43.846200,02,40.704230,-76.249310,PA,,yes,1.000000,1.000000,1.000000
01467752,"WB Schuylkill River ab West Cr near Pottsville, PA",Non-ref,EastHghlnds,63.191700,02,40.668690,-76.236420,PA,,yes,1.000000,1.000000,1.000000
01467861,"West Cr West Branch Schuylkill near Pottsville, PA",Non-ref,EastHghlnds,47.465100,02,40.668770,-76.237940,PA,,yes,1.000000,1.000000,1.000000
01468500,"Schuylkill River at Landingville, PA",Non-ref,EastHghlnds,344.209500,02,40.629258,-76.124662,PA,,yes,43.000000,41.000000,20.000000
01469500,"Little Schuylkill River at Tamaqua, PA",Non-ref,EastHghlnds,114.344100,02,40.807033,-75.971871,PA,,yes,90.000000,60.000000,20.000000
01469700,"Little Schuylkill River at South Tamaqua, PA",Non-ref,EastHghlnds,171.352800,02,40.773150,-75.956590,PA,,yes,4.000000,4.000000,2.000000
01470500,"Schuylkill River at Berne, PA",Non-ref,EastHghlnds,924.729300,02,40.522593,-75.998268,PA,,yes,62.000000,60.000000,20.000000
01470756,"Maiden Creek at Virginville, PA",Non-ref,EastHghlnds,410.061600,02,40.514261,-75.882982,PA,,,22.000000,22.000000,6.000000
01470779,"Tulpehocken Creek near Bernville, PA",Non-ref,EastHghlnds,179.159500,02,40.413426,-76.171613,PA,,yes,34.000000,34.000000,20.000000
01470853,"Furnace Creek at Robesonia, PA",Non-ref,NorthEast,10.783800,02,40.340092,-76.143278,PA,,,23.000000,23.000000,16.000000
01470960,Tulpehocken Cr at Blue Marsh Damsite near Reading,Non-ref,EastHghlnds,461.382300,02,40.370648,-76.025216,PA,,yes,44.000000,44.000000,20.000000
01471000,"Tulpehocken Creek near Reading, PA",Non-ref,EastHghlnds,557.100000,02,40.368982,-75.979102,PA,,yes,59.000000,59.000000,20.000000
01471510,"Schuylkill River at Reading, PA",Non-ref,EastHghlnds,2303.509000,02,40.334815,-75.936320,PA,,yes,44.000000,32.000000,20.000000
01471875,"Manatawny Creek near Spangsville, PA",Ref,NorthEast,148.084200,02,40.339538,-75.742136,PA,,yes,16.000000,16.000000,16.000000
01471980,"Manatawny Creek near Pottstown, PA",Non-ref,NorthEast,221.696900,02,40.272873,-75.679909,PA,,,30.000000,30.000000,15.000000
01472000,"Schuylkill River at Pottstown, PA",Non-ref,EastHghlnds,2971.815000,02,40.241763,-75.651575,PA,,yes,82.000000,60.000000,20.000000
01472157,"French Creek near Phoenixville, PA",Non-ref,SEPlains,152.290000,02,40.151491,-75.601305,PA,,yes,41.000000,41.000000,20.000000
01472198,"Perkiomen Creek at East Greenville, PA",Non-ref,NorthEast,97.515910,02,40.393988,-75.515459,PA,,yes,28.000000,28.000000,20.000000
01472199,"West Branch Perkiomen Creek at Hillegass, PA",Non-ref,NorthEast,60.757200,02,40.373988,-75.522403,PA,,yes,28.000000,28.000000,20.000000
01472620,"East Branch Perkiomen Creek near Dublin, PA",Non-ref,SEPlains,10.502100,02,40.403993,-75.234342,PA,,yes,26.000000,26.000000,20.000000
